FID,FID_1,CONAME,ADDR,CITY16,STATE,STATE_NAME,ZIP,SIC,NAICS_EXT,SALES_VOL,HDBRCH,NUMBER_EMP,EMPSIZ,FRNCOD,ISCODE,SQFT,SUBNUM,ULTNUM,MATCH_CODE,LOCNUM,naics2,distHwy,CoffeeDist,DistShop,popDens,newStrbck,POP,HHs,Families,Homes,Med_Inc,Med_Rent,Med_Value,Pct_White,Pct_le_5yr,Avg_HHSze,Pct_Col2,Pct_BlPov,distEmpC,longitude,latitude,COUNTY_NAM
0,767,KAIROS COFFE & TEA,1137 BRANCHTON RD,WEST SUNBURY,PA,Pennsylvania,16061,581228,72221305,400, ,10,C, , ,B,000000000,000000000,MS97*,664041639,72221305.000000000000000,10878,25635,13545,0.000019252200000,0,4961,1832,1460,2044,34035,407,65700,99,7,2.7100000,9,14,92194,-79.9139023,41.0909996,BUTLER
1,768,DUNKIN' DONUTS,540 BUTLER CROSSING # 8,BUTLER,PA,Pennsylvania,16001,546105,72221310,280,2,5,B,D, ,A,307608455,902093095,TS87*,690817408,72221310.000000000000000,500,17304,1003,0.000425393200000,0,2911,1399,780,1476,31973,529,94800,98,5,2.0799999,17,10,60608,-79.9425964,40.8768005,BUTLER
2,769,DONUT CONNECTION,330 CENTER AVE,BUTLER,PA,Pennsylvania,16001,546105,72221310,448, ,8,B, , ,B,000000000,000000000,MA100,831366380,72221310.000000000000000,640,15643,2378,0.002211331500000,0,4117,1804,1145,1965,25733,372,68800,96,9,2.2800000,11,18,57596,-79.8896027,40.8552017,BUTLER
3,770,MI COFFEE & TEA CO LLC,208 E MAIN ST,EVANS CITY,PA,Pennsylvania,16033,581228,72221305,400, ,10,C, , ,B,000000000,000000000,MA97*,404191485,72221305.000000000000000,4061,10011,636,0.000072611500000,0,4696,1789,1353,1939,42212,456,105000,99,7,2.6199999,18,6,47140,-80.0626984,40.7691994,BUTLER
4,771,AMBASSADOR REFRESHMENT INC,185 IVYWOOD RD,SAXONBURG,PA,Pennsylvania,16056,581228,72221305,400, ,10,C, , ,B,000000000,000000000,MA100,267306355,72221305.000000000000000,6200,13166,8212,0.000069648400000,0,4408,1688,1200,1788,40584,508,110600,99,5,2.6099999,18,8,37410,-79.8508987,40.7120018,BUTLER
5,772,AMBASSADOR REFRESHMENTS INC,317 SAXONBURG BLVD,SAXONBURG,PA,Pennsylvania,16056,581228,72221305,160, ,4,A, , ,A,000000000,000000000,MS100,482759487,72221305.000000000000000,8659,14696,9271,0.000069648400000,0,4408,1688,1200,1788,40584,508,110600,99,5,2.6099999,18,8,42578,-79.8153000,40.7410011,BUTLER
6,903,STARBUCKS,1713 ROUTE 228 # E,CRANBERRY TWP,PA,Pennsylvania,16066,581228,72221305,640,2,16,C,4, ,B,000000000,303651459,MS97*,592441752,72221305.000000000000000,985,2041,2162,0.000381187800000,0,7984,2705,2314,2884,75013,858,183500,97,10,2.9500000,46,3,35963,-80.0830994,40.6856995,BUTLER
7,914,COFFEE CRUNCHERS,128 S MAIN ST,ZELIENOPLE,PA,Pennsylvania,16063,581228,72221305,400, ,10,C, , ,B,000000000,000000000,MS100,402363903,72221305.000000000000000,906,8091,2798,0.000730253300000,0,5060,2356,1306,2547,40385,583,116500,100,4,2.1500001,27,5,53078,-80.1369019,40.7953987,BUTLER
8,915,HERBE Z TOWN CAFE,105 N MAIN ST,ZELIENOPLE,PA,Pennsylvania,16063,581228,72221305,160, ,4,A, , ,A,000000000,000000000,MA100,632220380,72221305.000000000000000,1005,8142,2773,0.000730253300000,0,5060,2356,1306,2547,40385,583,116500,100,4,2.1500001,27,5,53170,-80.1371002,40.7960014,BUTLER
9,919,DUNKIN' DONUTS,20220 ROUTE 19,CRANBERRY TWP,PA,Pennsylvania,16066,546105,72221310,784,2,14,C,D, ,B,307608455,902093095,MA97*,267331726,72221310.000000000000000,316,639,981,0.000454378500000,0,7800,2942,2165,3082,69434,767,188400,95,10,2.6500001,53,3,36645,-80.1016998,40.6865997,BUTLER
10,920,DUNKIN' DONUTS,20411 ROUTE 19 # 4,CRANBERRY TWP,PA,Pennsylvania,16066,546105,72221310,280,2,5,B,D, ,A,307608455,902093095,MA97*,402921434,72221310.000000000000000,283,987,1687,0.000454378500000,0,7800,2942,2165,3082,69434,767,188400,95,10,2.6500001,53,3,37864,-80.1044998,40.6946983,BUTLER
11,921,STEAMERS COFFEE,20424 ROUTE 19,CRANBERRY TWP,PA,Pennsylvania,16066,581228,72221305,400, ,10,C, , ,B,000000000,000000000,MS97*,649515400,72221305.000000000000000,224,1094,1740,0.000454378500000,0,7800,2942,2165,3082,69434,767,188400,95,10,2.6500001,53,3,38025,-80.1044998,40.6958008,BUTLER
12,926,CRAZY MOCHA COFFEE CO,1185 FREEDOM RD # B101,CRANBERRY TWP,PA,Pennsylvania,16066,581228,72221305,400, ,10,C, , ,B,000000000,000000000,MS97*,720064260,72221305.000000000000000,990,2177,1487,0.001346619000000,0,3026,1110,908,1136,52139,864,102600,99,5,2.6600001,34,1,36795,-80.1232986,40.6822014,BUTLER
13,929,STARBUCKS,20111 ROUTE 19,CRANBERRY TWP,PA,Pennsylvania,16066,581228,72221305,160,2,4,A,4, ,A,000000000,303651459,MS97*,637498346,72221305.000000000000000,361,641,357,0.000754100100000,0,2965,1008,839,1043,63750,811,128200,98,8,2.9400001,42,2,36025,-80.1007996,40.6823997,BUTLER
14,930,KRISPY KREME DOUGHNUTS,20125 ROUTE 19,CRANBERRY TWP,PA,Pennsylvania,16066,546105,72221310,1736,2,31,D,K, ,B,000000000,009204504,MA97*,592450399,72221310.000000000000000,300,524,615,0.000754100100000,0,2965,1008,839,1043,63750,811,128200,98,8,2.9400001,42,2,36281,-80.1010971,40.6842003,BUTLER
15,931,STARBUCKS,1302 FREEDOM RD # 100,CRANBERRY TWP,PA,Pennsylvania,16066,581228,72221305,1120,2,28,D,4, ,B,000000000,303651459,MA97*,220424816,72221305.000000000000000,0,971,1152,0.000754100100000,0,2965,1008,839,1043,63750,811,128200,98,8,2.9400001,42,2,36640,-80.1095963,40.6847000,BUTLER
16,1127,SORELLA SORRELLA ESPRESSO,500 GALLERIA DR,JOHNSTOWN,PA,Pennsylvania,15904,581228,72221305,200, ,5,B, , ,A,000000000,000000000,MS100,403648258,72221305.000000000000000,224,5957,2829,0.000130601500000,0,3054,1259,976,1309,37888,512,96600,100,4,2.4300001,24,4,58240,-78.8361969,40.2966995,CAMBRIA
17,1128,SORELLA SORELLA ESPRESSO,828 DIAMOND BLVD # 2,JOHNSTOWN,PA,Pennsylvania,15905,581228,72221305,80, ,2,A, , ,A,000000000,000000000,MS100,378540488,72221305.000000000000000,1700,6222,2364,0.000868064800000,0,2262,967,677,1021,38125,529,85400,100,5,2.3399999,34,5,67011,-78.9401016,40.3158989,CAMBRIA
18,1129,VILLAGE STREET CAFE,603 GROVE AVE,JOHNSTOWN,PA,Pennsylvania,15902,581228,72221305,80, ,2,A, , ,A,000000000,000000000,MA100,251828398,72221305.000000000000000,1800,5175,3693,0.002401513900000,0,2310,981,596,1128,24622,406,44400,93,8,2.3499999,11,23,65350,-78.9102020,40.2961998,CAMBRIA
19,1130,DUNKIN' DONUTS,1439 SCALP AVE,JOHNSTOWN,PA,Pennsylvania,15904,546105,72221310,280,2,5,B,D, ,A,307608455,902093095,MA100,679969667,72221310.000000000000000,0,4262,1413,0.000299160500000,0,5753,2453,1702,2555,37300,466,87100,97,5,2.3499999,21,7,62309,-78.8579025,40.2711983,CAMBRIA
20,1131,STARBUCKS,115 THEATRE DR,JOHNSTOWN,PA,Pennsylvania,15904,581228,72221305,720,2,18,C,4, ,B,000000000,303651459,MS100,396819922,72221305.000000000000000,141,4976,2193,0.000299160500000,0,3791,1061,583,1130,30694,408,102500,99,2,3.5699999,14,13,62345,-78.8505020,40.2627983,CAMBRIA
21,1157,KRISPY KREAM DRIVE IN,3680 BEN FRANKLIN HWY,BELSANO,PA,Pennsylvania,15922,546105,72221310,112, ,2,A, , ,A,000000000,000000000,MA100,634867899,72221310.000000000000000,3008,30601,12325,0.000032896400000,0,2728,1042,805,1128,30616,353,49300,99,5,2.6199999,11,10,52243,-78.8654022,40.5176010,CAMBRIA
22,1167,DONUT CONNECTION,126 CLINTON ST,JOHNSTOWN,PA,Pennsylvania,15901,546105,72221310,560, ,10,C, , ,B,000000000,000000000,MA100,400819298,72221310.000000000000000,412,5685,2116,0.001905316000000,0,1453,981,130,1128,10490,229,69400,87,1,1.3900000,5,37,63984,-78.9158020,40.3250999,CAMBRIA
23,707,DUNKIN' DONUTS,57 ROUTE 940,BLAKESLEE,PA,Pennsylvania,18610,546105,72221310,840,2,15,C,D, ,B,307608455,902093095,TS86*,669182883,72221310.000000000000000,500,23966,10554,0.000012866100000,0,6914,2680,2053,7149,35130,649,96400,93,6,2.5799999,13,11,38824,-75.6056976,41.0844994,CARBON
24,1028,STRANGE BREW,79 BROADWAY,JIM THORPE,PA,Pennsylvania,18229,581228,72221305,120, ,3,A, , ,A,000000000,000000000,MA100,716676697,72221305.000000000000000,4883,18009,3833,0.000126688800000,0,4804,1979,1406,2193,35976,445,80200,99,4,2.4300001,14,10,48844,-75.7406006,40.8637009,CARBON
25,1030,DUNKIN' DONUTS,92 E BRIDGE ST,LEHIGHTON,PA,Pennsylvania,18235,546105,72221310,672,2,12,C,D, ,B,307608455,902093095,MS100,382460822,72221310.000000000000000,361,15701,1108,0.001307165300000,0,5537,2377,1551,2546,28566,453,71700,98,6,2.3299999,7,14,42173,-75.7045975,40.8274002,CARBON
26,1142,CAFE ON THE PARK,325 W HIGH ST,BELLEFONTE,PA,Pennsylvania,16823,581228,72221305,120, ,3,A, , ,A,000000000,000000000,MA100,652278664,72221305.000000000000000,3102,11643,3654,0.001304046800000,0,6395,2819,1651,2953,33216,483,99100,97,6,2.2700000,24,14,90138,-77.7814026,40.9117012,CENTRE
27,1143,COOL BEANS COFFEE & TEA,141 W HIGH ST,BELLEFONTE,PA,Pennsylvania,16823,581228,72221305,120, ,3,A, , ,A,000000000,000000000,MS100,220111389,72221305.000000000000000,2879,11745,3561,0.001304046800000,0,6395,2819,1651,2953,33216,483,99100,97,6,2.2700000,24,14,90384,-77.7788010,40.9118996,CENTRE
28,1144,STARBUCKS,2030 N ATHERTON ST,STATE COLLEGE,PA,Pennsylvania,16803,581228,72221305,800,2,20,D,4, ,B,000000000,303651459,MS100,364810432,72221305.000000000000000,0,4195,1445,0.000214281100000,0,6106,2754,971,2895,31735,674,107600,87,3,2.2200000,57,29,69715,-77.9076004,40.8093987,CENTRE
29,1145,DUNKIN' DONUTS,1381 E COLLEGE AVE,STATE COLLEGE,PA,Pennsylvania,16801,546105,72221310,280,2,5,B,D, ,A,307608455,902093095,MS100,403476560,72221310.000000000000000,0,3314,3301,0.000205171200000,0,4795,2039,1340,2141,49349,479,152000,96,4,2.3499999,52,7,76537,-77.8319016,40.8101006,CENTRE
30,1146,PUMP STATION CAFE,103 BOAL AVE,BOALSBURG,PA,Pennsylvania,16827,581228,72221305,600, ,15,C, , ,B,000000000,000000000,MS100,388794091,72221305.000000000000000,100,6032,2486,0.000061005000000,0,4657,1744,1383,1855,60420,595,155800,97,6,2.6700001,54,6,77241,-77.7994003,40.7807999,CENTRE
31,1147,WEBSTER'S CAFE ON AARON,434 W AARON DR # 201,STATE COLLEGE,PA,Pennsylvania,16803,581228,72221305,160, ,4,A, , ,A,000000000,000000000,MS100,643615453,72221305.000000000000000,200,3139,617,0.000983392600000,0,8914,3578,1992,3698,37750,594,147600,82,6,2.4900000,60,19,70539,-77.8942032,40.8055992,CENTRE
32,1148,STARBUCKS,232 W COLLEGE AVE # B,STATE COLLEGE,PA,Pennsylvania,16801,581228,72221305,640,2,16,C,4, ,B,000000000,303651459,MS100,243184983,72221305.000000000000000,200,679,482,0.011862291700000,1,6378,452,195,458,17078,480,0,75,2,1.4100000,86,44,72267,-77.8630981,40.7933006,CENTRE
33,1149,DUNKIN' DONUTS,200 W COLLEGE AVE,STATE COLLEGE,PA,Pennsylvania,16801,546105,72221310,2240,2,40,D,D, ,B,307608455,902093095,MA100,663551091,72221310.000000000000000,200,661,461,0.011862291700000,0,6378,452,195,458,17078,480,0,75,2,1.4100000,86,44,72294,-77.8628998,40.7933998,CENTRE
34,1150,DUNKIN' DONUTS,432 E COLLEGE AVE,STATE COLLEGE,PA,Pennsylvania,16801,546105,72221310,1400,2,25,D,D, ,B,307608455,902093095,MA100,682811583,72221310.000000000000000,224,723,511,0.011862291700000,0,6378,452,195,458,17078,480,0,75,2,1.4100000,86,44,73283,-77.8564987,40.7981987,CENTRE
35,1151,IRVING'S AT THE AIRPORT,2535 UNIVERSITY PARK AIRPORT,STATE COLLEGE,PA,Pennsylvania,16801,581228,72221305,400, ,10,C, , ,B,000000000,000000000,Mz100,691239628,72221305.000000000000000,600,1427,1269,0.004215062100000,0,6090,2282,324,2421,17099,683,159100,91,1,2.6700001,73,63,73395,-77.8487015,40.7909012,CENTRE
36,1152,STARBUCKS,141 S GARNER ST # 13590,STATE COLLEGE,PA,Pennsylvania,16801,581228,72221305,640,2,16,C,4, ,B,000000000,303651459,MS100,660535105,72221305.000000000000000,300,688,467,0.011862291700000,0,3548,1576,82,1630,11601,523,133000,87,1,2.2500000,50,77,73244,-77.8561020,40.7974014,CENTRE
37,1153,DUNKIN' DONUTS,3180 W COLLEGE AVE,STATE COLLEGE,PA,Pennsylvania,16801,546105,72221310,280,2,5,B,D, ,A,307608455,902093095,MA100,403476558,72221310.000000000000000,3105,5306,4896,0.000966672400000,0,5149,1921,1536,2001,61549,500,141200,96,6,2.6800001,50,5,68182,-77.8780975,40.7601013,CENTRE
38,445,STARBUCKS,PENNSYLVANIA TPKE W,ELVERSON,PA,Pennsylvania,19520,581228,72221305,4800,2,120,F,4, ,B,000000000,303651459,Mz100,396148264,72221305.000000000000000,1200,13211,7911,0.000051879100000,0,2556,1007,775,1033,56771,594,169100,99,5,2.5400000,28,6,36348,-75.8105011,40.1558990,CHESTER
39,447,DUNKIN' DONUTS,2321 POTTSTOWN PIKE,POTTSTOWN,PA,Pennsylvania,19465,546105,72221310,168,2,3,A,D, ,A,307608455,902093095,MS100,372142216,72221310.000000000000000,6923,12363,9524,0.000132106200000,0,1895,684,536,721,62857,656,168000,98,7,2.7700000,32,4,25124,-75.6650009,40.1692009,CHESTER
40,448,DUNKIN' DONUTS,123 NUTT RD,PHOENIXVILLE,PA,Pennsylvania,19460,546105,72221310,448,2,8,B,D, ,B,307608455,902093095,MA100,121307763,72221310.000000000000000,4649,3591,1154,0.003682127400000,0,4604,2046,1111,2202,35339,600,91300,87,6,2.2500000,20,10,13289,-75.5138016,40.1240005,CHESTER
41,449,NUDY'S BRIDGE STREET CAFE,450 BRIDGE ST,PHOENIXVILLE,PA,Pennsylvania,19460,581228,72221305,800, ,20,D, , ,B,000000000,000000000,MA100,604715664,72221305.000000000000000,4460,3159,829,0.003682127400000,0,4604,2046,1111,2202,35339,600,91300,87,6,2.2500000,20,10,14228,-75.5222015,40.1309013,CHESTER
42,450,STEEL CITY COFFEE HOUSE,203 BRIDGE ST # 1,PHOENIXVILLE,PA,Pennsylvania,19460,581228,72221305,440, ,11,C, , ,B,000000000,000000000,MA100,391918745,72221305.000000000000000,3860,2970,786,0.003682127400000,0,4604,2046,1111,2202,35339,600,91300,87,6,2.2500000,20,10,14710,-75.5164032,40.1339989,CHESTER
43,451,STARBUCKS,400 SIMPSON DR,CHESTER SPRINGS,PA,Pennsylvania,19425,581228,72221305,640,2,16,C,4, ,B,000000000,303651459,MS96*,243254596,72221305.000000000000000,300,3116,2729,0.000479696100000,0,6850,2142,1890,2167,96711,1013,222700,97,10,3.2000000,58,2,19120,-75.6882019,40.0764999,CHESTER
44,452,DUNKIN' DONUTS,153 POTTSTOWN PIKE,CHESTER SPRINGS,PA,Pennsylvania,19425,546105,72221310,224,2,4,A,D, ,A,307608455,902093095,MA96*,648039410,72221310.000000000000000,600,3333,3115,0.000479696100000,0,6850,2142,1890,2167,96711,1013,222700,97,10,3.2000000,58,2,19321,-75.6887970,40.0792999,CHESTER
45,453,DUNKIN' DONUTS,376 W UWCHLAN AVE,DOWNINGTOWN,PA,Pennsylvania,19335,546105,72221310,280,2,5,B,D, ,A,307608455,902093095,MA100,648030708,72221310.000000000000000,1389,4322,2651,0.000811814200000,0,7802,2441,2219,2454,101959,586,235700,95,9,3.2000000,62,1,16911,-75.6780014,40.0326996,CHESTER
46,454,STARBUCKS,180 EAGLEVIEW BLVD,EXTON,PA,Pennsylvania,19341,581228,72221305,200,2,5,B,4, ,A,000000000,303651459,MA100,692370547,72221305.000000000000000,1400,2271,1184,0.000811814200000,0,7802,2441,2219,2454,101959,586,235700,95,9,3.2000000,62,1,15599,-75.6639023,40.0525017,CHESTER
47,455,DUNKIN' DONUTS,210 LANCASTER AVE,MALVERN,PA,Pennsylvania,19355,546105,72221310,336,2,6,B,D, ,A,307608455,902093095,MS100,399428416,72221310.000000000000000,0,1997,884,0.000283175900000,0,5360,1885,1416,1947,69458,954,179200,88,7,2.8399999,48,5,1924,-75.5401993,40.0407982,CHESTER
48,456,BEANIES CAFE, ,MALVERN,PA,Pennsylvania,19355,581228,72221305,400, ,10,C, , ,B,000000000,000000000,Mz100,649185279,72221305.000000000000000,100,1603,629,0.000283175900000,0,5360,1885,1416,1947,69458,954,179200,88,7,2.8399999,48,5,1727,-75.5341034,40.0433006,CHESTER
49,457,DUNKIN' DONUTS,201 MOREHALL RD,MALVERN,PA,Pennsylvania,19355,546105,72221310,112,2,2,A,D, ,A,307608455,902093095,MA100,400765892,72221310.000000000000000,100,2226,1110,0.000283175900000,0,5360,1885,1416,1947,69458,954,179200,88,7,2.8399999,48,5,2830,-75.5272980,40.0526009,CHESTER
50,458,DUNKIN' DONUTS,100 E UWCHLAN AVE # EXXON,EXTON,PA,Pennsylvania,19341,546105,72221310,448,2,8,B,D, ,B,307608455,902093095,MA100,657023768,72221310.000000000000000,400,2369,1891,0.000743245200000,0,3893,1473,1069,1508,75607,1118,131100,94,7,2.6400001,54,1,14726,-75.6533966,40.0606995,CHESTER
51,459,STARBUCKS,801 N POTTSTOWN PIKE,EXTON,PA,Pennsylvania,19341,581228,72221305,600,2,15,C,4, ,B,000000000,303651459,MA100,219581972,72221305.000000000000000,854,2442,1566,0.001088042800000,0,3893,1473,1069,1508,75607,1118,131100,94,7,2.6400001,54,1,13947,-75.6477966,40.0559006,CHESTER
52,460,DUNKIN' DONUTS,102 N POTTSTOWN PIKE,EXTON,PA,Pennsylvania,19341,546105,72221310,280,2,5,B,D, ,A,307608455,902093095,MS100,687639765,72221310.000000000000000,100,2023,1126,0.000345692100000,0,6109,2765,1705,2839,73919,998,189500,90,6,2.2100000,57,3,11426,-75.6285019,40.0284004,CHESTER
53,461,STARBUCKS,300 E LINCOLN HWY,EXTON,PA,Pennsylvania,19341,581228,72221305,680,2,17,C,4, ,B,000000000,303651459,MA100,619181910,72221305.000000000000000,424,1899,1635,0.000345692100000,0,6109,2765,1705,2839,73919,998,189500,90,6,2.2100000,57,3,10723,-75.6222000,40.0288010,CHESTER
54,462,DUNKIN' DONUTS,318 E LINCOLN HWY,EXTON,PA,Pennsylvania,19341,546105,72221310,280,2,5,B,D, ,A,307608455,902093095,MS100,121167324,72221310.000000000000000,566,1966,1743,0.000345692100000,0,6109,2765,1705,2839,73919,998,189500,90,6,2.2100000,57,3,10594,-75.6210022,40.0288010,CHESTER
55,463,DUNKIN' DONUTS,20 W LANCASTER AVE,PAOLI,PA,Pennsylvania,19301,546105,72221310,112,2,2,A,D, ,A,307608455,902093095,MS100,485792311,72221310.000000000000000,0,248,3369,0.001089776300000,0,2553,1147,651,1242,52768,807,180900,88,6,2.2200000,46,6,4773,-75.4847031,40.0419006,CHESTER
56,464,SAXBY'S COFFEE,35 W LANCASTER AVE,PAOLI,PA,Pennsylvania,19301,581228,72221305,400, ,10,C, , ,B,000000000,000000000,MS100,404707896,72221305.000000000000000,0,305,3343,0.001089776300000,0,2553,1147,651,1242,52768,807,180900,88,6,2.2200000,46,6,4693,-75.4854965,40.0419006,CHESTER
57,465,STARBUCKS,15 E LANCASTER AVE,PAOLI,PA,Pennsylvania,19301,581228,72221305,800,2,20,D,4, ,B,000000000,303651459,MA100,976867101,72221305.000000000000000,0,247,3420,0.001089776300000,0,2553,1147,651,1242,52768,807,180900,88,6,2.2200000,46,6,4945,-75.4832001,40.0419998,CHESTER
58,466,IT'S A GRIND COFFEE HOUSE,63 LANCASTER AVE,PAOLI,PA,Pennsylvania,19301,581228,72221305,520,2,13,C,I, ,B,585697915,400074630,MA90*,659014203,72221305.000000000000000,0,453,3439,0.001089776300000,0,2553,1147,651,1242,52768,807,180900,88,6,2.2200000,46,6,5247,-75.4804001,40.0420990,CHESTER
59,467,CAFE MARIE,22 S WARREN AVE,MALVERN,PA,Pennsylvania,19355,581228,72221305,400, ,10,C, , ,B,000000000,000000000,MA100,649901279,72221305.000000000000000,800,2791,2197,0.000924491900000,0,3059,1360,822,1419,62308,956,156500,90,7,2.2500000,50,3,1353,-75.5142975,40.0354004,CHESTER
60,468,STARBUCKS,1375 E BOOT RD,WEST CHESTER,PA,Pennsylvania,19380,581228,72221305,640,2,16,C,4, ,B,000000000,303651459,MS97*,243185758,72221305.000000000000000,1265,4880,2854,0.000478987900000,0,4344,1455,1330,1464,99497,988,278400,98,7,2.9600000,63,2,7041,-75.5697021,39.9981003,CHESTER
61,469,DUNKIN' DONUTS,3907 W LINCOLN HWY,DOWNINGTOWN,PA,Pennsylvania,19335,546105,72221310,392,2,7,B,D, ,B,307608455,902093095,MA100,238631303,72221310.000000000000000,1166,7302,2191,0.000592366800000,0,6413,2327,1746,2432,65473,816,120300,81,9,2.7600000,35,4,24759,-75.7433014,39.9964981,CHESTER
62,470,COOPERTOWN ESPRESSO SMOOTHIE,49 W LANCASTER AVE,DOWNINGTOWN,PA,Pennsylvania,19335,581228,72221305,40, ,1,A, , ,A,000000000,000000000,MA100,716515572,72221305.000000000000000,1221,5982,3594,0.001532851000000,0,3600,1295,920,1346,47894,659,113800,84,5,2.7800000,19,4,20643,-75.7076035,40.0042992,CHESTER
63,471,DUNKIN' DONUTS,750 MILES RD,WEST CHESTER,PA,Pennsylvania,19380,546105,72221310,1680,2,30,D,D, ,B,307608455,902093095,MA97*,614095347,72221310.000000000000000,3466,2530,1579,0.000185865000000,0,9405,3079,2475,3150,100732,763,248300,93,7,3.0500000,59,2,15135,-75.6278000,39.9640999,CHESTER
64,472,IRIE BLUE MOUNTAIN COFFEE,260 E LINCOLN HWY,COATESVILLE,PA,Pennsylvania,19320,581228,72221305,400, ,10,C, , ,B,000000000,000000000,MA100,403646223,72221305.000000000000000,1628,11494,596,0.004121900000000,0,3517,1291,828,1530,22722,496,76900,24,8,2.7200000,7,31,33572,-75.8206024,39.9836006,CHESTER
65,473,DUNKIN' DONUTS,1009 W CHESTER PIKE # 2,WEST CHESTER,PA,Pennsylvania,19382,546105,72221310,280,2,5,B,D, ,A,307608455,902093095,MA97*,400650727,72221310.000000000000000,0,1779,701,0.001059408200000,0,4683,2058,1245,2091,51208,809,145300,81,6,2.2800000,40,7,11141,-75.5786972,39.9679985,CHESTER
66,474,STARBUCKS,1081 W CHESTER PIKE # B,WEST CHESTER,PA,Pennsylvania,19382,581228,72221305,800,2,20,D,4, ,B,000000000,303651459,MA97*,395959117,72221305.000000000000000,0,1960,603,0.001059408200000,0,4683,2058,1245,2091,51208,809,145300,81,6,2.2800000,40,7,10958,-75.5763016,39.9682999,CHESTER
67,475,DUNKIN' DONUTS,1594 W CHESTER PIKE,WESTTOWN,PA,Pennsylvania,19395,546105,72221310,280,2,5,B,D, ,A,307608455,902093095,MS89*,678647181,72221310.000000000000000,0,6532,2445,0.000452280500000,0,4455,1654,1299,1742,81186,1008,219900,95,5,2.7300000,57,3,9727,-75.5214005,39.9663010,CHESTER
68,476,FENNARIO,111 N CHURCH ST,WEST CHESTER,PA,Pennsylvania,19380,581228,72221305,400, ,10,C, , ,B,000000000,000000000,MA97*,645382805,72221305.000000000000000,2025,192,427,0.003397668800000,0,3968,1681,1011,1674,40922,654,125100,60,7,2.3499999,31,11,13874,-75.6066971,39.9603996,CHESTER
69,477,NICK'S CAFE,8 W GAY ST,WEST CHESTER,PA,Pennsylvania,19380,581228,72221305,120, ,3,A, , ,A,000000000,000000000,MA88*,474898491,72221305.000000000000000,1942,146,493,0.004289515700000,0,4489,1602,654,1671,26486,684,95700,66,5,2.8000000,27,42,13720,-75.6048965,39.9606018,CHESTER
70,478,DUNKIN' DONUTS,607 E MARKET ST # 4,WEST CHESTER,PA,Pennsylvania,19382,546105,72221310,280,2,5,B,D, ,A,307608455,902093095,MA97*,645380726,72221310.000000000000000,1082,1209,481,0.004289515700000,0,4489,1602,654,1671,26486,684,95700,66,5,2.8000000,27,42,12699,-75.5953979,39.9637985,CHESTER
71,479,LINCOLN ROOM,28 W MARKET ST,WEST CHESTER,PA,Pennsylvania,19382,581228,72221305,200, ,5,B, , ,A,000000000,000000000,MA97*,379604838,72221305.000000000000000,1992,186,507,0.003289881600000,0,3880,1801,727,1881,42721,680,164100,90,5,2.1500001,51,14,13881,-75.6052017,39.9594002,CHESTER
72,480,STARBUCKS,2 W GAY ST,WEST CHESTER,PA,Pennsylvania,19380,581228,72221305,640,2,16,C,4, ,B,000000000,303651459,MA97*,661454835,72221305.000000000000000,1942,120,478,0.003289881600000,0,3880,1801,727,1881,42721,680,164100,90,5,2.1500001,51,14,13768,-75.6053009,39.9603996,CHESTER
73,482,STARBUCKS,1353 WILMINGTON PIKE,WEST CHESTER,PA,Pennsylvania,19382,581228,72221305,600,2,15,C,4, ,B,000000000,303651459,MS97*,211242342,72221305.000000000000000,0,6138,2626,0.000257708500000,0,4221,1392,1283,1413,130096,1152,341500,94,6,3.0300000,73,1,19290,-75.5659027,39.9039001,CHESTER
74,483,SAXBYS COFFEE WORLDWIDE,811 E BALTIMORE PIKE,KENNETT SQUARE,PA,Pennsylvania,19348,581228,72221305,200,2,5,B, , ,A,000000000,657039483,MS100,716521414,72221305.000000000000000,0,2485,1303,0.000244535900000,0,6317,2133,1756,2188,95812,739,265600,95,6,2.9600000,63,2,30859,-75.6868973,39.8600998,CHESTER
75,484,STARBUCKS,879 E BALTIMORE PIKE,KENNETT SQUARE,PA,Pennsylvania,19348,581228,72221305,440,2,11,C,4, ,B,000000000,303651459,MS100,219889748,72221305.000000000000000,0,2485,1347,0.000244535900000,0,6317,2133,1756,2188,95812,739,265600,95,6,2.9600000,63,2,30082,-75.6800003,39.8628998,CHESTER
76,485,DUNKIN' DONUTS,934 E BALTIMORE PIKE,KENNETT SQUARE,PA,Pennsylvania,19348,546105,72221310,280,2,5,B,D, ,A,307608455,902093095,MA100,203642376,72221310.000000000000000,0,2866,1916,0.000244535900000,0,6317,2133,1756,2188,95812,739,265600,95,6,2.9600000,63,2,29566,-75.6754990,39.8648987,CHESTER
77,493,DUNKIN' DONUTS,745 W CYPRESS ST,KENNETT SQUARE,PA,Pennsylvania,19348,546105,72221310,448,2,8,B,D, ,B,307608455,902093095,MS100,391224318,72221310.000000000000000,1118,5909,1257,0.000269490400000,0,9083,2724,2328,2831,75307,606,220100,83,7,3.3299999,40,6,35541,-75.7275009,39.8432999,CHESTER
78,494,STARBUCKS,35 JENNERS VILLAGE CTR,WEST GROVE,PA,Pennsylvania,19390,581228,72221305,760,2,19,C,4, ,B,000000000,303651459,MS96*,655960359,72221305.000000000000000,283,9145,2501,0.000212702500000,0,2812,1036,817,1093,57949,877,159300,93,6,2.7100000,32,6,49087,-75.8722000,39.8237000,CHESTER
79,496,DUNKIN' DONUTS,81 BALTIMORE PIKE,AVONDALE,PA,Pennsylvania,19311,546105,72221310,168,2,3,A,D, ,A,307608455,902093095,MA100,382828358,72221310.000000000000000,2280,7304,2920,0.000197442900000,0,1111,353,285,350,46875,688,118600,69,8,3.1400001,12,15,41651,-75.7807999,39.8230019,CHESTER
80,497,CAFE CALI,50 RAILROAD AVE # 2,WEST GROVE,PA,Pennsylvania,19390,581228,72221305,200, ,5,B, , ,A,000000000,000000000,MS96*,203643937,72221305.000000000000000,539,7211,3018,0.001691141100000,0,2652,872,715,889,56875,679,122000,73,8,3.0400000,28,8,45343,-75.8266983,39.8223991,CHESTER
81,500,DUNKIN' DONUTS,891 LANCASTER AVE,DEVON,PA,Pennsylvania,19333,546105,72221310,280,2,5,B,D, ,A,307608455,902093095,Mz100,982412298,72221310.000000000000000,361,3268,1903,0.001042771500000,0,6100,2736,1472,2807,70543,910,258200,87,6,2.2300000,73,6,2568,-75.4160995,40.0438995,CHESTER
82,503,BAXTERS BLACK SHEEP SALOON,660 LANCASTER AVE,BERWYN,PA,Pennsylvania,19312,581228,72221305,800, ,20,D, , ,B,000000000,000000000,MS100,402048197,72221305.000000000000000,0,3980,3681,0.000795380400000,0,5067,1972,1327,2035,74886,654,238800,92,7,2.5699999,56,4,5293,-75.4421005,40.0476990,CHESTER
83,1280,DUNKIN' DONUTS,760 COMMONS DR,PARKESBURG,PA,Pennsylvania,19365,546105,72221310,336,2,6,B,D, ,A,307608455,902093095,MS100,613191170,72221310.000000000000000,316,10453,7347,0.000122658600000,0,2444,809,678,818,52031,632,134900,93,7,3.0200000,15,7,45095,-75.9348984,39.9804993,CHESTER
84,1284,DUNKIN' DONUTS,321 N 3RD ST,OXFORD,PA,Pennsylvania,19363,546105,72221310,280,2,5,B,D, ,A,307608455,902093095,MS100,402018874,72221310.000000000000000,500,17079,1840,0.000994952800000,0,4315,1703,1117,1825,34966,528,113400,78,8,2.5300000,18,12,54940,-75.9756012,39.7961006,CHESTER
85,763,STARBUCKS,840 WOOD ST,CLARION,PA,Pennsylvania,16214,581228,72221305,640,2,16,C,4, ,B,000000000,303651459,MS100,691362362,72221305.000000000000000,2800,16218,1796,0.001288243600000,1,6185,1992,750,2192,19902,391,89200,95,3,3.0999999,32,41,125826,-79.3806992,41.2112999,CLARION
86,764,DOUGH & JOE LLP,857 E MAIN ST,CLARION,PA,Pennsylvania,16214,546105,72221310,112, ,2,A, , ,A,000000000,000000000,MS100,403390082,72221310.000000000000000,2900,16280,1896,0.001288243600000,0,6185,1992,750,2192,19902,391,89200,95,3,3.0999999,32,41,126040,-79.3787003,41.2121010,CLARION
87,765,MICHELLE'S CAFE,611 MAIN ST # 1,CLARION,PA,Pennsylvania,16214,581228,72221305,360, ,9,B, , ,B,000000000,000000000,MS100,651903718,72221305.000000000000000,3000,16169,2038,0.001288243600000,0,6185,1992,750,2192,19902,391,89200,95,3,3.0999999,32,41,126014,-79.3835983,41.2140007,CLARION
88,1138,DUNKIN' DONUTS,14319 CLEARFIELD SHAWVLE # 100,CLEARFIELD,PA,Pennsylvania,16830,546105,72221310,1456,2,26,D,D, ,B,307608455,902093095,MS86*,677285850,72221310.000000000000000,447,45676,3232,0.000021112400000,0,3030,1120,786,1332,29397,404,56400,99,4,2.7100000,12,16,76749,-78.4030991,41.0343018,CLEARFIELD
89,1139,JAVA JOEY,690 SHAFFER RD,DU BOIS,PA,Pennsylvania,15801,581228,72221305,200, ,5,B, , ,A,000000000,000000000,MS100,403519059,72221305.000000000000000,1265,26689,958,0.000079526000000,0,6444,2522,1970,3056,45969,603,95700,97,6,2.5599999,30,5,97079,-78.7293015,41.1222000,CLEARFIELD
90,1140,STEW'S BREW COFFEEHOUSE,34 S BRADY ST,DU BOIS,PA,Pennsylvania,15801,581228,72221305,200, ,5,B, , ,A,000000000,000000000,MS100,403284601,72221305.000000000000000,2717,26803,720,0.000782574100000,0,4499,2025,1168,2222,28030,372,59400,98,5,2.2200000,16,17,98027,-78.7629013,41.1180992,CLEARFIELD
91,730,SECOND CUP,204 WOODWARD AVE,LOCK HAVEN,PA,Pennsylvania,17745,581228,72221305,160, ,4,A,5, ,A,000000000,000000000,MA100,864872320,72221305.000000000000000,1530,4054,3682,0.000008907200000,0,3812,1534,1166,1995,40597,407,88500,99,5,2.4900000,19,6,47868,-77.4210968,41.1459999,CLINTON
92,739,DUNKIN' DONUTS,420 BELLEFONTE AVE,LOCK HAVEN,PA,Pennsylvania,17745,546105,72221310,1176,2,21,D,D, ,B,307608455,902093095,MA100,119717171,72221310.000000000000000,1221,1779,728,0.001780951600000,0,7225,2369,1269,2541,21241,413,76000,96,4,3.0699999,20,29,51808,-77.4534988,41.1347008,CLINTON
93,740,AVENUE 209 COFFEE HOUSE,209 BELLEFONTE AVE,LOCK HAVEN,PA,Pennsylvania,17745,581228,72221305,200, ,5,B, , ,A,000000000,000000000,MA100,692038235,72221305.000000000000000,1204,1722,753,0.001780951600000,0,7225,2369,1269,2541,21241,413,76000,96,4,3.0699999,20,29,51563,-77.4515991,41.1355019,CLINTON
94,741,STARBUCKS,301 N FAIRVIEW ST,LOCK HAVEN,PA,Pennsylvania,17745,581228,72221305,640,2,16,C,4, ,B,000000000,303651459,MA100,654004555,72221305.000000000000000,2025,2253,1736,0.001780951600000,0,7225,2369,1269,2541,21241,413,76000,96,4,3.0699999,20,29,52310,-77.4604034,41.1400986,CLINTON
95,680,KRISTIE'S KAFE,5TH ST,BENTON,PA,Pennsylvania,17814,581228,72221305,40, ,1,A, , ,A,000000000,000000000,MS100,618478846,72221305.000000000000000,16515,26998,11593,0.000020443300000,0,5241,2126,1585,2878,36031,430,89900,99,5,2.4700000,14,9,57479,-76.3862000,41.1959991,COLUMBIA
96,708,DUNKIN' DONUTS,219 W FRONT ST,BERWICK,PA,Pennsylvania,18603,546105,72221310,728,2,13,C,D, ,B,307608455,902093095,MA100,904271202,72221310.000000000000000,4428,14059,1931,0.001384066000000,0,5740,2345,1537,2518,27481,447,69600,98,5,2.4500000,9,14,49688,-76.2361984,41.0535011,COLUMBIA
97,709,PERFECT BLEND EXPRESSO & MORE,135 W FRONT ST,BERWICK,PA,Pennsylvania,18603,581228,72221305,80, ,2,A, , ,A,000000000,000000000,MS100,213012487,72221305.000000000000000,4472,14063,1864,0.001384066000000,0,5740,2345,1537,2518,27481,447,69600,98,5,2.4500000,9,14,49429,-76.2341995,41.0545006,COLUMBIA
98,744,STARBUCKS,400 E 2ND ST,BLOOMSBURG,PA,Pennsylvania,17815,581228,72221305,920,2,23,D,4, ,B,000000000,303651459,MS100,684642549,72221305.000000000000000,1879,13098,1512,0.002162707000000,1,5971,1154,463,1203,24286,489,86700,94,2,5.1700001,31,48,71183,-76.4512024,41.0055008,COLUMBIA
99,745,DUNKIN' DONUTS,895 COLUMBIA BLVD,BLOOMSBURG,PA,Pennsylvania,17815,546105,72221310,1680,2,30,D,D, ,B,307608455,902093095,MA100,600949341,72221310.000000000000000,2236,13804,852,0.000798499100000,0,2573,1097,666,1120,30173,505,86100,96,6,2.2800000,19,11,72378,-76.4403000,41.0036011,COLUMBIA
100,611,TIM HORTONS,16447 CONNEAUT LAKE RD,MEADVILLE,PA,Pennsylvania,16335,546105,72221310,1176,2,21,D,T, ,B,000000000,482651494,MS100,685156192,72221310.000000000000000,0,6427,3502,0.000073267300000,0,5499,2417,1681,2599,38264,499,76900,97,5,2.2800000,17,6,74141,-80.2068024,41.6218987,CRAWFORD
101,612,PITTSBURGH BAGEL & COFFEE CO,955 PARK AVE,MEADVILLE,PA,Pennsylvania,16335,581228,72221305,120, ,3,A, , ,A,000000000,000000000,MS100,591617600,72221305.000000000000000,800,2307,1256,0.001066308700000,0,4162,1929,842,2175,17258,378,45600,87,7,2.1600001,9,39,70907,-80.1529007,41.6372986,CRAWFORD
102,613,TELLERS ROW COFFEE BAR,940 PARK AVE # 103,MEADVILLE,PA,Pennsylvania,16335,581228,72221305,200, ,5,B, , ,A,000000000,000000000,MA100,603765280,72221305.000000000000000,900,2300,1269,0.001066308700000,0,4162,1929,842,2175,17258,378,45600,87,7,2.1600001,9,39,70846,-80.1529007,41.6376991,CRAWFORD
103,614,SUE'S DONUTS & COFFEE SHOP,872 WATER ST,MEADVILLE,PA,Pennsylvania,16335,581228,72221305,80, ,2,A, , ,A,000000000,000000000,MS100,512952029,72221305.000000000000000,1100,2408,1421,0.001066308700000,0,4162,1929,842,2175,17258,378,45600,87,7,2.1600001,9,39,70542,-80.1546021,41.6399994,CRAWFORD
104,1172,DUNKIN' DONUTS,421 N ENOLA RD,ENOLA,PA,Pennsylvania,17025,546105,72221310,616,2,11,C,D, ,B,307608455,902093095,MA100,119275105,72221310.000000000000000,1500,6886,2235,0.001076310900000,0,4984,2156,1333,2271,35808,604,82800,95,6,2.3099999,11,8,7935,-76.9283981,40.2985992,CUMBERLAND
105,1175,STARBUCKS,6440 CARLISLE PIKE,MECHANICSBURG,PA,Pennsylvania,17050,581228,72221305,640,2,16,C,4, ,B,000000000,303651459,MS100,647502558,72221305.000000000000000,0,4718,1227,0.000123290900000,0,5885,2243,1735,2333,51509,437,131700,96,5,2.6199999,29,4,10404,-77.0112991,40.2467003,CUMBERLAND
106,1178,DONUT CONNECTION,1186 HARRISBURG PIKE,CARLISLE,PA,Pennsylvania,17013,546105,72221310,672, ,12,C, , ,B,000000000,000000000,MA100,864180112,72221310.000000000000000,0,4459,4452,0.000106339500000,0,6669,2316,1827,2392,50471,480,106600,96,6,2.8800001,17,6,24941,-77.1414032,40.2327995,CUMBERLAND
107,1179,DUNKIN' DONUTS,1651 HARRISBURG PIKE,CARLISLE,PA,Pennsylvania,17015,546105,72221310,840,2,15,C,D, ,B,307608455,902093095,MA100,672129046,72221310.000000000000000,0,5494,6372,0.000106339500000,0,6669,2316,1827,2392,50471,480,106600,96,6,2.8800001,17,6,22800,-77.1222000,40.2340012,CUMBERLAND
108,1181,DUNKIN' DONUTS,407 N 21ST ST,CAMP HILL,PA,Pennsylvania,17011,546105,72221310,280,2,5,B,D, ,A,307608455,902093095,MS100,402544655,72221310.000000000000000,100,3000,2319,0.001286814900000,0,8045,3194,2204,3304,52412,583,135300,91,7,2.5200000,32,7,961,-76.9229965,40.2501984,CUMBERLAND
109,1193,ST JOHN'S COFFEE CAFE,115 SAINT JOHNS CHURCH RD,CAMP HILL,PA,Pennsylvania,17011,581228,72221305,400, ,10,C, , ,B,000000000,000000000,MA100,681391082,72221305.000000000000000,400,1658,1610,0.000870808000000,0,5414,2393,1449,2469,42033,686,117000,93,4,2.2600000,29,6,4823,-76.9598999,40.2366982,CUMBERLAND
110,1194,HARD BEAN NEWS & COFFEE,3609 MARKET ST,CAMP HILL,PA,Pennsylvania,17011,581228,72221305,80, ,2,A, , ,A,000000000,000000000,MS100,203804216,72221305.000000000000000,632,1297,1186,0.000870808000000,0,5414,2393,1449,2469,42033,686,117000,93,4,2.2600000,29,6,3072,-76.9443970,40.2388992,CUMBERLAND
111,1197,JUICE & JAVA,5258 SIMPSON FERRY RD # A,MECHANICSBURG,PA,Pennsylvania,17050,581228,72221305,200, ,5,B, , ,A,000000000,000000000,MS100,203804224,72221305.000000000000000,1844,2377,1633,0.001039417900000,0,4397,1896,1274,2019,50406,664,112400,92,5,2.2900000,35,3,8140,-76.9817963,40.2178001,CUMBERLAND
112,1198,THAI CAFE,5202 SIMPSON FERRY RD # 112,MECHANICSBURG,PA,Pennsylvania,17050,581228,72221305,400, ,10,C, , ,B,000000000,000000000,MA100,714932753,72221305.000000000000000,1769,2298,1621,0.001039417900000,0,4397,1896,1274,2019,50406,664,112400,92,5,2.2900000,35,3,7911,-76.9797974,40.2182007,CUMBERLAND
113,1199,DUNKIN' DONUTS,4175 MARKET ST # HESS,CAMP HILL,PA,Pennsylvania,17011,546105,72221310,336,2,6,B,D, ,A,307608455,902093095,MA100,688602481,72221310.000000000000000,500,1293,1454,0.000870808000000,0,4397,1896,1274,2019,50406,664,112400,92,5,2.2900000,35,3,4158,-76.9541016,40.2378998,CUMBERLAND
114,1200,DUNKIN' DONUTS,5306 CARLISLE PIKE,MECHANICSBURG,PA,Pennsylvania,17050,546105,72221310,840,2,15,C,D, ,B,307608455,902093095,MA100,864819008,72221310.000000000000000,100,2961,1788,0.000424756200000,0,4397,1896,1274,2019,50406,664,112400,92,5,2.2900000,35,3,7231,-76.9824982,40.2397003,CUMBERLAND
115,1201,STARBUCKS,3200 TRINDLE RD,CAMP HILL,PA,Pennsylvania,17011,581228,72221305,600,2,15,C,4, ,B,000000000,303651459,MA100,358685980,72221305.000000000000000,0,1786,1008,0.001333070500000,0,3676,1581,1117,1607,59688,584,140700,97,5,2.3299999,55,3,2138,-76.9350967,40.2383003,CUMBERLAND
116,1203,BRIDGE STREET COFFEEHOUSE,1903 BRIDGE ST,NEW CUMBERLAND,PA,Pennsylvania,17070,581228,72221305,240, ,6,B, , ,A,000000000,000000000,MS100,511356594,72221305.000000000000000,361,2594,1875,0.001523021900000,0,3808,1608,1147,1634,56797,706,121100,98,4,2.3699999,42,2,3831,-76.8842010,40.2393990,CUMBERLAND
117,1204,CRIMSON FROG COFFEEHOUSE,1104 CARLISLE RD # 200,CAMP HILL,PA,Pennsylvania,17011,581228,72221305,280, ,7,B, , ,B,000000000,000000000,MA100,258659770,72221305.000000000000000,0,2991,1664,0.001335494800000,0,4442,1990,1330,2062,58500,736,119800,96,5,2.2300000,43,4,3610,-76.8918991,40.2300987,CUMBERLAND
118,1205,STARBUCKS,3981 CAPITAL CITY MALL DR #FK1,CAMP HILL,PA,Pennsylvania,17011,581228,72221305,440,2,11,C,4, ,B,000000000,303651459,MS100,637232547,72221305.000000000000000,141,2792,1800,0.000271573300000,0,7488,3275,1956,3377,43488,678,108700,95,5,2.2900000,26,6,3918,-76.9353027,40.2215004,CUMBERLAND
119,1208,DUNKIN' DONUTS,712 N HANOVER ST # 718,CARLISLE,PA,Pennsylvania,17013,546105,72221310,280,2,5,B,D, ,A,307608455,902093095,MA100,402921433,72221310.000000000000000,500,3457,2615,0.000428433200000,0,4364,1878,1269,2039,35942,538,95100,87,6,2.3199999,24,12,29894,-77.1826019,40.2103996,CUMBERLAND
120,1210,DUNKIN' DONUTS,402 E HIGH ST,CARLISLE,PA,Pennsylvania,17013,546105,72221310,280,2,5,B,D, ,A,307608455,902093095,MA100,688602085,72221310.000000000000000,707,3406,2883,0.001246222000000,0,2093,1018,510,1072,32167,510,71900,88,8,2.1400001,17,15,29885,-77.1800995,40.2006989,CUMBERLAND
121,1211,STARBUCKS,266 WESTMINSTER DR,CARLISLE,PA,Pennsylvania,17013,581228,72221305,640,2,16,C,4, ,B,000000000,303651459,MS100,396819989,72221305.000000000000000,0,3771,3837,0.000274281400000,0,9393,3806,2857,3965,52734,655,122000,97,5,2.4700000,26,4,27732,-77.1589966,40.1968002,CUMBERLAND
122,1213,DUPERTS COFFEE SHOP & DINER,8 S HIGH ST,NEWVILLE,PA,Pennsylvania,17241,581228,72221305,400, ,10,C, , ,B,000000000,000000000,MA100,404605381,72221305.000000000000000,2550,23144,4719,0.001326500500000,0,1367,571,388,620,30313,499,82900,96,8,2.3900001,14,13,54592,-77.3992004,40.1729012,CUMBERLAND
123,1216,STARBUCKS,1871 OLD MAIN DR,SHIPPENSBURG,PA,Pennsylvania,17257,581228,72221305,640,2,16,C,4, ,B,000000000,303651459,MS100,647524867,72221305.000000000000000,2816,14665,2445,0.000858443200000,0,4379,807,342,879,27314,530,24600,94,2,5.4299998,25,39,72576,-77.5222015,40.0578003,CUMBERLAND
124,1217,CORNER COFFEE,240 W KING ST,SHIPPENSBURG,PA,Pennsylvania,17257,581228,72221305,120, ,3,A, , ,A,000000000,000000000,MS100,614136562,72221305.000000000000000,2408,13791,1888,0.001234997400000,0,4484,1925,832,2102,22327,494,81700,94,4,2.3299999,20,35,73577,-77.5266037,40.0479012,CUMBERLAND
125,1168,STARBUCKS,2545 BRINDLE DR,HARRISBURG,PA,Pennsylvania,17110,581228,72221305,480,2,12,C,4, ,B,000000000,303651459,MS100,254816127,72221305.000000000000000,141,2603,2797,0.000386436000000,0,10599,4264,2867,4466,60712,686,123400,77,5,2.4900000,43,4,11742,-76.8457031,40.3035011,DAUPHIN
126,1169,BAGEL LOVERS CAFE,2237 PAXTON CHURCH RD,HARRISBURG,PA,Pennsylvania,17110,581228,72221305,800, ,20,D, , ,B,000000000,000000000,MS100,907899058,72221305.000000000000000,1204,3762,3283,0.000386436000000,0,10599,4264,2867,4466,60712,686,123400,77,5,2.4900000,43,4,12302,-76.8565979,40.3149986,DAUPHIN
127,1170,DUNKIN' DONUTS,100 W HERSHEY PARK #HERSHEY PA,HERSHEY,PA,Pennsylvania,17033,546105,72221310,280,2,5,B,D, ,A,307608455,902093095,MA87*,687639328,72221310.000000000000000,3667,1938,2711,0.000100423500000,0,1707,811,423,926,37176,746,109200,87,8,2.0200000,34,7,29466,-76.6605988,40.2924004,DAUPHIN
128,1171,DUNKIN' DONUTS,621 PARK AVE,HERSHEY,PA,Pennsylvania,17033,546105,72221310,280,2,5,B,D, ,A,307608455,902093095,MA100,694183922,72221310.000000000000000,4134,1590,2871,0.000466728800000,0,1707,811,423,926,37176,746,109200,87,8,2.0200000,34,7,30413,-76.6522980,40.2934990,DAUPHIN
129,1173,STARBUCKS,5116 JONESTOWN RD # A,HARRISBURG,PA,Pennsylvania,17112,581228,72221305,800,2,20,D,4, ,B,000000000,303651459,MS100,234391902,72221305.000000000000000,1217,2566,438,0.000941538400000,1,6211,2974,1675,3156,39505,629,109800,81,6,2.0899999,27,8,16394,-76.8003998,40.3125992,DAUPHIN
130,1174,STARBUCKS,69 OUTLET SQ # B,HERSHEY,PA,Pennsylvania,17033,581228,72221305,480,2,12,C,4, ,B,000000000,303651459,Mz100,637498619,72221305.000000000000000,4383,1754,3072,0.000466728800000,0,2548,1190,695,1337,40896,655,101200,93,6,2.1400001,31,4,30832,-76.6485977,40.2942009,DAUPHIN
131,1176,DUNKIN' DONUTS,4005 JONESTOWN RD,HARRISBURG,PA,Pennsylvania,17109,546105,72221310,1120,2,20,D,D, ,B,307608455,902093095,MA100,314746140,72221310.000000000000000,200,2158,964,0.001599596900000,0,5599,2544,1422,2673,40042,660,96300,87,5,2.2000000,25,6,12360,-76.8280029,40.2946014,DAUPHIN
132,1177,OCEANVILLE LLC,4600 JONESTOWN RD,HARRISBURG,PA,Pennsylvania,17109,581228,72221305,400, ,10,C, , ,B,000000000,000000000,MA100,718193162,72221305.000000000000000,894,2480,1798,0.000941538400000,0,5599,2544,1422,2673,40042,660,96300,87,5,2.2000000,25,6,14051,-76.8154984,40.3011017,DAUPHIN
133,1180,STARBUCKS,3901 UNION DEPOSIT RD,HARRISBURG,PA,Pennsylvania,17109,581228,72221305,800,2,20,D,4, ,B,000000000,303651459,MS100,612096610,72221305.000000000000000,412,3087,357,0.001135430900000,0,4035,1710,1076,1774,42012,566,106900,84,5,2.3599999,24,7,11499,-76.8243027,40.2781982,DAUPHIN
134,1182,COCOA PERK,1130 COCOA AVE,HERSHEY,PA,Pennsylvania,17033,581228,72221305,600, ,15,C, , ,B,000000000,000000000,MS100,681399903,72221305.000000000000000,3231,3009,800,0.001218077600000,0,3493,1663,986,1754,41057,480,145100,96,5,2.0999999,34,8,30268,-76.6481018,40.2704010,DAUPHIN
135,1183,STARBUCKS,500 UNIVERSITY DR,HERSHEY,PA,Pennsylvania,17033,581228,72221305,320,2,8,B,4, ,B,000000000,303651459,MS100,396148587,72221305.000000000000000,1140,2584,1812,0.000410690100000,0,10114,3808,2691,3985,67045,713,168900,92,5,2.6600001,57,3,27296,-76.6742020,40.2657013,DAUPHIN
136,1184,FRACTURED PRUNE THE DONUT,18 BRIARCREST SQ,HERSHEY,PA,Pennsylvania,17033,546105,72221310,280, ,5,B, , ,A,000000000,000000000,Mz100,664200540,72221310.000000000000000,1389,2273,1583,0.000410690100000,0,10114,3808,2691,3985,67045,713,168900,92,5,2.6600001,57,3,27639,-76.6716995,40.2691994,DAUPHIN
137,1185,DUNKIN' DONUTS,4300 DERRY ST # HESS,SWATARA,PA,Pennsylvania,17111,546105,72221310,280,2,5,B,D, ,A,307608455,902093095,MS100,688602911,72221310.000000000000000,0,2449,3056,0.001062154800000,0,7764,3253,2257,3351,46335,547,100500,84,6,2.3900001,24,7,12194,-76.8097000,40.2580986,DAUPHIN
138,1186,STARBUCKS,222 MARKET ST # 2,HARRISBURG,PA,Pennsylvania,17101,581228,72221305,600,2,15,C,4, ,B,000000000,303651459,Mz100,356882134,72221305.000000000000000,100,443,451,0.001280967800000,0,2968,2036,360,2496,22952,467,110400,63,2,1.4600000,29,18,4663,-76.8813019,40.2602997,DAUPHIN
139,1187,DUNKIN' DONUTS,107 N 2ND ST,HARRISBURG,PA,Pennsylvania,17101,546105,72221310,336,2,6,B,D, ,A,307608455,902093095,MA100,688017433,72221310.000000000000000,224,304,676,0.001280967800000,0,2968,2036,360,2496,22952,467,110400,63,2,1.4600000,29,18,4474,-76.8834991,40.2607002,DAUPHIN
140,1188,JAVA INTERNET CAFE,200 N 2ND ST,HARRISBURG,PA,Pennsylvania,17101,581228,72221305,40, ,1,A, , ,A,000000000,000000000,MA100,401719502,72221305.000000000000000,283,308,737,0.001280967800000,0,2968,2036,360,2496,22952,467,110400,63,2,1.4600000,29,18,4442,-76.8841019,40.2610016,DAUPHIN
141,1189,CAFFEINE CONNECTION,512 N 3RD ST,HARRISBURG,PA,Pennsylvania,17101,581228,72221305,400, ,10,C, , ,B,000000000,000000000,MA100,379647480,72221305.000000000000000,510,609,774,0.001280967800000,0,2968,2036,360,2496,22952,467,110400,63,2,1.4600000,29,18,4623,-76.8852005,40.2644005,DAUPHIN
142,1190,DUNKIN' DONUTS,1100 MARKET ST # HESS,HARRISBURG,PA,Pennsylvania,17103,546105,72221310,336,2,6,B,D, ,A,307608455,902093095,Mz100,688017615,72221310.000000000000000,100,1231,439,0.004734372200000,0,2409,786,546,1150,23548,542,44100,13,9,3.0200000,7,32,5752,-76.8733978,40.2649002,DAUPHIN
143,1191,STARBUCKS,4600 HIGH POINTE BLVD,HARRISBURG,PA,Pennsylvania,17111,581228,72221305,640,2,16,C,4, ,B,000000000,303651459,MS100,637498411,72221305.000000000000000,141,2805,2845,0.000393040100000,0,5017,2028,1454,2107,43547,603,110300,86,6,2.4700000,26,6,12307,-76.8074036,40.2462006,DAUPHIN
144,1192,DUNKIN' DONUTS,6821 PAXTON ST # HESS,HARRISBURG,PA,Pennsylvania,17111,546105,72221310,280,2,5,B,D, ,A,307608455,902093095,MA100,688667070,72221310.000000000000000,0,4697,1743,0.000393040100000,0,5017,2028,1454,2107,43547,603,110300,86,6,2.4700000,26,6,16070,-76.7748032,40.2594986,DAUPHIN
145,1195,STARBUCKS,3462 PAXTON ST # 1,HARRISBURG,PA,Pennsylvania,17111,581228,72221305,640,2,16,C,4, ,B,000000000,303651459,MA100,650024425,72221305.000000000000000,100,2090,2421,0.000688024200000,0,7958,2549,1681,2712,31557,504,83800,65,4,3.1199999,8,15,9980,-76.8290024,40.2537994,DAUPHIN
146,1196,DUNKIN' DONUTS,2820 PAXTON ST,HARRISBURG,PA,Pennsylvania,17111,546105,72221310,560,2,10,C,D, ,B,307608455,902093095,MS100,203813076,72221310.000000000000000,200,2880,1381,0.000688024200000,0,7958,2549,1681,2712,31557,504,83800,65,4,3.1199999,8,15,8700,-76.8411026,40.2559013,DAUPHIN
147,1202,STARBUCKS,1 TERMINAL DR,MIDDLETOWN,PA,Pennsylvania,17057,581228,72221305,640,2,16,C,4, ,B,000000000,303651459,MS100,637631367,72221305.000000000000000,1500,6949,2565,0.000373578200000,0,8149,3007,2292,3124,48940,565,98000,94,6,2.7100000,22,5,18672,-76.7621002,40.1973000,DAUPHIN
148,1207,STARBUCKS,PENNSYLVANIA TPKE E MM 249.7,MIDDLETOWN,PA,Pennsylvania,17057,581228,72221305,480,2,12,C,4, ,B,000000000,303651459,Mz100,654004548,72221305.000000000000000,806,8044,1687,0.001247857900000,0,3875,1596,1054,1627,38705,557,82700,95,5,2.4100001,13,6,21805,-76.7304001,40.2016983,DAUPHIN
149,1229,DUNKIN' DONUTS,4342 LINGLESTOWN RD,HARRISBURG,PA,Pennsylvania,17112,546105,72221310,560,2,10,C,D, ,B,307608455,902093095,MS100,629869330,72221310.000000000000000,1487,3946,2724,0.000322136000000,0,5274,1831,1573,1886,73199,856,162500,94,5,2.8800001,46,2,17028,-76.8229980,40.3363991,DAUPHIN
150,1232,ST THOMAS ROASTERS,5951 LINGLESTOWN RD,HARRISBURG,PA,Pennsylvania,17112,581228,72221305,1000, ,25,D, , ,B,000000000,000000000,MA100,540577525,72221305.000000000000000,1700,3807,2826,0.000646653900000,0,5658,2231,1745,2283,49895,620,111000,96,5,2.5400000,26,4,19949,-76.7934036,40.3432007,DAUPHIN
151,1233,DUNKIN' DONUTS,5575 ALLENTOWN BLVD,HARRISBURG,PA,Pennsylvania,17112,546105,72221310,280,2,5,B,D, ,A,307608455,902093095,MA100,403797071,72221310.000000000000000,583,2794,1200,0.000740780100000,0,5658,2231,1745,2283,49895,620,111000,96,5,2.5400000,26,4,17638,-76.7932968,40.3195000,DAUPHIN
152,1000,STARBUCKS,2125 OAKLAND AVE # 50,INDIANA,PA,Pennsylvania,15701,581228,72221305,800,2,20,D,4, ,B,000000000,303651459,MS100,619088214,72221305.000000000000000,2062,2434,1847,0.000330532300000,0,6200,2731,1519,2961,28569,439,99200,92,4,2.2700000,36,15,59817,-79.1784973,40.6092987,INDIANA
153,1002,CAFFE AMADEUS ROAST & BREW,628 PHILADELPHIA ST,INDIANA,PA,Pennsylvania,15701,581228,72221305,200, ,5,B, , ,A,000000000,000000000,MS100,646715573,72221305.000000000000000,2163,1285,803,0.003844522600000,0,2352,1000,468,1052,25399,469,81500,96,3,2.3599999,41,33,63317,-79.1516037,40.6228981,INDIANA
154,1003,LDN DONUTS,1024 PHILADELPHIA ST,INDIANA,PA,Pennsylvania,15701,546105,72221310,112, ,2,A, , ,A,000000000,000000000,MS100,404381902,72221310.000000000000000,2476,1030,1180,0.003844522600000,0,2352,1000,468,1052,25399,469,81500,96,3,2.3599999,41,33,62777,-79.1587982,40.6230011,INDIANA
155,1004,STARBUCKS,599 PRATT DR,INDIANA,PA,Pennsylvania,15705,581228,72221305,640,2,16,C,4, ,B,000000000,303651459,MS100,637498650,72221305.000000000000000,1720,1089,1143,0.006935728600000,1,5078,586,65,598,11461,437,109100,87,0,8.6700001,33,80,61876,-79.1588974,40.6146011,INDIANA
156,1005,COMMONPLACE COFFEE HOUSE,1176 GRANT ST,INDIANA,PA,Pennsylvania,15701,581228,72221305,320, ,8,B, , ,B,000000000,000000000,MS100,222153074,72221305.000000000000000,2163,1071,1153,0.006935728600000,0,5078,586,65,598,11461,437,109100,87,0,8.6700001,33,80,61759,-79.1632004,40.6166000,INDIANA
157,1006,STOMPIN GROUNDS COFFEE CO,39 W MARKET ST,BLAIRSVILLE,PA,Pennsylvania,15717,581228,72221305,160, ,4,A, , ,A,000000000,000000000,MA100,250267564,72221305.000000000000000,894,24446,16672,0.000934840900000,0,3607,1632,1036,1830,30625,395,61200,96,6,2.2100000,15,11,35620,-79.2655029,40.4306984,INDIANA
158,1141,CATERINA'S,110 W MAHONING ST,PUNXSUTAWNEY,PA,Pennsylvania,15767,581228,72221305,200, ,5,B, , ,A,000000000,000000000,MA100,649672532,72221305.000000000000000,20205,41211,1180,0.000561009800000,0,2906,1282,711,1431,25349,331,52200,99,4,2.2700000,14,13,90080,-78.9714966,40.9435005,JEFFERSON
159,625,DUNKIN' DONUTS,40 N MAIN ST,CARBONDALE,PA,Pennsylvania,18407,546105,72221310,1400,2,25,D,D, ,B,307608455,902093095,MA100,120066055,72221310.000000000000000,1200,9549,3283,0.002189837900000,0,3936,1657,992,1899,27864,405,67400,97,6,2.3800001,16,13,30065,-75.5018005,41.5733986,LACKAWANNA
160,626,COZY CORNER CAFE,49 N CHURCH ST,CARBONDALE,PA,Pennsylvania,18407,581228,72221305,400, ,10,C, , ,B,000000000,000000000,MA100,402376732,72221305.000000000000000,1100,9668,3396,0.002189837900000,0,3936,1657,992,1899,27864,405,67400,97,6,2.3800001,16,13,30233,-75.5000000,41.5737991,LACKAWANNA
161,628,DUNKIN' DONUTS,927 S STATE ST,CLARKS SUMMIT,PA,Pennsylvania,18411,546105,72221310,1008,2,18,C,D, ,B,307608455,902093095,MA90*,396733206,72221310.000000000000000,100,4180,2339,0.000179100300000,0,2568,991,715,1032,66597,725,192600,96,5,2.5899999,54,3,15624,-75.7188034,41.5028000,LACKAWANNA
162,629,DONUT PALACE,222 SCRANTON CARBONDALE HWY,EYNON,PA,Pennsylvania,18403,546105,72221310,112, ,2,A, , ,A,000000000,000000000,MS89*,623382702,72221310.000000000000000,3801,3561,2951,0.000158004000000,0,6220,2463,1827,2594,39428,498,92500,99,6,2.5300000,21,7,15068,-75.5885010,41.4953003,LACKAWANNA
163,630,DUNKIN' DONUTS,671 SCRANTON CARBONDALE HWY,EYNON,PA,Pennsylvania,18403,546105,72221310,1568,2,28,D,D, ,B,307608455,902093095,MA89*,120061833,72221310.000000000000000,4046,4721,3697,0.000158004000000,0,6220,2463,1827,2594,39428,498,92500,99,6,2.5300000,21,7,16815,-75.5792999,41.5049019,LACKAWANNA
164,631,KRISPY KREME DOUGHNUTS,831 NORTHERN BLVD # 1,S ABINGTON TWP,PA,Pennsylvania,18411,546105,72221310,1680,2,30,D,K, ,B,000000000,009204504,MA95*,206884074,72221310.000000000000000,0,1936,1896,0.000344069800000,0,2908,838,658,897,59286,538,144900,95,6,3.4700000,37,4,11450,-75.6889038,41.4816017,LACKAWANNA
165,632,DONUT CONNECTION,1123 NORTHERN BLVD,S ABINGTON TWP,PA,Pennsylvania,18411,546105,72221310,1120, ,20,D, , ,B,000000000,000000000,MS97*,891567141,72221310.000000000000000,0,1535,1569,0.000344069800000,0,2908,838,658,897,59286,538,144900,95,6,3.4700000,37,4,11987,-75.6927032,41.4844017,LACKAWANNA
166,633,STARBUCKS,1131 NORTHERN BLVD,S ABINGTON TWP,PA,Pennsylvania,18411,581228,72221305,440,2,11,C,4, ,B,000000000,303651459,MS97*,629544388,72221305.000000000000000,0,1535,1570,0.000344069800000,0,2908,838,658,897,59286,538,144900,95,6,3.4700000,37,4,12003,-75.6928024,41.4845009,LACKAWANNA
167,634,STARBUCKS,1152 COMMERCE BLVD # 101,DICKSON CITY,PA,Pennsylvania,18519,581228,72221305,800,2,20,D,4, ,B,000000000,303651459,MA97*,242413995,72221305.000000000000000,1676,3045,2174,0.000288347900000,0,2615,1167,740,1288,26086,432,78900,99,5,2.2400000,8,11,9070,-75.6364975,41.4670982,LACKAWANNA
168,635,DUNKIN' DONUTS,1510 MAIN ST,DICKSON CITY,PA,Pennsylvania,18519,546105,72221310,1960,2,35,D,D, ,B,307608455,902093095,MS92*,120142435,72221310.000000000000000,2731,2638,440,0.001004483600000,0,3590,1509,1031,1625,35711,471,88900,100,5,2.3800001,20,4,10377,-75.6112976,41.4687004,LACKAWANNA
169,636,STARBUCKS,300 LACKAWANNA AVE,OLYPHANT,PA,Pennsylvania,18447,581228,72221305,560,2,14,C,4, ,B,000000000,303651459,MS100,631994209,72221305.000000000000000,2500,2882,654,0.000366006600000,0,4978,2185,1380,2381,32721,403,91000,98,5,2.2800000,17,11,10870,-75.6042023,41.4693985,LACKAWANNA
170,637,DUNKIN' DONUTS,3400 N MAIN AVE,SCRANTON,PA,Pennsylvania,18508,546105,72221310,280,2,5,B,D, ,A,307608455,902093095,MS100,402921442,72221310.000000000000000,141,3048,934,0.000468243200000,0,2858,1214,815,1343,32828,536,74800,97,6,2.3499999,8,17,6398,-75.6396027,41.4490013,LACKAWANNA
171,638,CURRY DONUT,1657 N KEYSER AVE,SCRANTON,PA,Pennsylvania,18508,546105,72221310,392, ,7,B, , ,B,000000000,000000000,MS100,400779450,72221310.000000000000000,141,3403,1264,0.000462508100000,0,3719,1596,1011,1699,31587,521,90300,98,5,2.3299999,14,7,5514,-75.6747971,41.4429016,LACKAWANNA
172,639,DUNKIN' DONUTS,1339 N MAIN AVE,SCRANTON,PA,Pennsylvania,18508,546105,72221310,1120,2,20,D,D, ,B,307608455,902093095,MA100,967204280,72221310.000000000000000,400,2297,1237,0.002381532100000,0,2881,1228,778,1382,28846,416,72400,97,5,2.3499999,11,15,3500,-75.6644974,41.4310989,LACKAWANNA
173,640,DUNKIN' DONUTS,702 N BLAKELY ST # 1,DUNMORE,PA,Pennsylvania,18512,546105,72221310,1680,2,30,D,D, ,B,307608455,902093095,MS100,234429256,72221310.000000000000000,224,2774,2017,0.000652023800000,0,4056,1701,1133,1788,34161,368,102900,99,5,2.3800001,25,12,4760,-75.6241989,41.4281006,LACKAWANNA
174,641,DONUT CONNECTION,1100 N BLAKELY ST,DUNMORE,PA,Pennsylvania,18512,546105,72221310,448, ,8,B, , ,B,000000000,000000000,MS100,865141220,72221310.000000000000000,806,3043,1987,0.000652023800000,0,4056,1701,1133,1788,34161,368,102900,99,5,2.3800001,25,12,6174,-75.6184998,41.4375992,LACKAWANNA
175,642,SACRED GROUNDS COFFEE,3 W OLIVE ST # 108,SCRANTON,PA,Pennsylvania,18508,581228,72221305,200, ,5,B, , ,A,000000000,000000000,TS100,251934147,72221305.000000000000000,200,1066,884,0.001570413300000,0,2866,1123,803,1289,27556,460,71700,85,9,2.5500000,9,18,1462,-75.6642990,41.4165993,LACKAWANNA
176,644,NORTHERN LIGHT ESPRESSO BAR,536 SPRUCE ST,SCRANTON,PA,Pennsylvania,18503,581228,72221305,360, ,9,B, , ,B,000000000,000000000,MS100,207187808,72221305.000000000000000,224,569,694,0.002465368500000,0,2455,1168,260,1558,12478,305,72000,76,3,2.2200000,14,42,588,-75.6628036,41.4072990,LACKAWANNA
177,645,CURRY DONUTS,111 WYOMING AVE # 1,SCRANTON,PA,Pennsylvania,18503,546105,72221310,168, ,3,A, , ,A,000000000,000000000,MA100,259212132,72221310.000000000000000,316,712,744,0.002465368500000,0,2455,1168,260,1558,12478,305,72000,76,3,2.2200000,14,42,932,-75.6660004,41.4080009,LACKAWANNA
178,646,DUNKIN' DONUTS,100 MULBERRY ST,SCRANTON,PA,Pennsylvania,18503,546105,72221310,1344,2,24,D,D, ,B,307608455,902093095,MS100,714688058,72221310.000000000000000,0,768,552,0.002465368500000,0,2455,1168,260,1558,12478,305,72000,76,3,2.2200000,14,42,1240,-75.6661987,41.4133987,LACKAWANNA
179,647,MANSOUR'S GROCERY & COFFEE,969 PRESCOTT AVE,SCRANTON,PA,Pennsylvania,18510,581228,72221305,400, ,10,C, , ,B,000000000,000000000,MA100,260545538,72221305.000000000000000,806,2161,1470,0.001194480400000,0,2178,941,648,982,33179,476,76800,96,6,2.2400000,17,6,1819,-75.6417007,41.4107018,LACKAWANNA
180,648,KRISPY KREME DOUGHNUTS,400 S MAIN AVE,SCRANTON,PA,Pennsylvania,18504,546105,72221310,168,2,3,A,K, ,A,000000000,009204504,MA100,720034552,72221310.000000000000000,1581,1174,528,0.003900240400000,0,2477,1104,682,1283,27000,413,72900,95,6,2.2300000,6,16,3011,-75.6847000,41.4076996,LACKAWANNA
181,649,DUNKIN' DONUTS,1101 S WASHINGTON AVE,SCRANTON,PA,Pennsylvania,18505,546105,72221310,1232,2,22,D,D, ,B,307608455,902093095,MA100,120116439,72221310.000000000000000,1442,1043,345,0.002051701300000,0,3184,1407,795,1685,23491,458,69300,91,5,2.2600000,10,15,2469,-75.6748962,41.3975983,LACKAWANNA
182,650,CURRY DONUTS,1031 S WASHINGTON AVE,SCRANTON,PA,Pennsylvania,18505,546105,72221310,112, ,2,A, , ,A,000000000,000000000,MS100,206381360,72221310.000000000000000,1360,1064,394,0.002051701300000,0,3184,1407,795,1685,23491,458,69300,91,5,2.2600000,10,15,2381,-75.6744995,41.3982010,LACKAWANNA
183,651,KRISPY KREME DOUGHNUTS,511 MOOSIC ST,SCRANTON,PA,Pennsylvania,18505,546105,72221310,840,2,15,C,K, ,B,000000000,009204504,MS100,120115977,72221310.000000000000000,100,768,829,0.002051701300000,0,3184,1407,795,1685,23491,458,69300,91,5,2.2600000,10,15,793,-75.6595993,41.4029999,LACKAWANNA
184,652,STARBUCKS,MONROE & LINDEN ST,SCRANTON,PA,Pennsylvania,18510,581228,72221305,640,2,16,C,4, ,B,000000000,303651459,TS93*,660535089,72221305.000000000000000,283,695,649,0.007038565300000,0,4104,911,353,1030,26777,408,73400,91,2,4.3499999,14,35,283,-75.6576996,41.4062004,LACKAWANNA
185,653,AROMA CAFE,1336 BRYN MAWR ST,SCRANTON,PA,Pennsylvania,18504,581228,72221305,200, ,5,B, , ,A,000000000,000000000,MA100,688062546,72221305.000000000000000,2202,940,1220,0.003900240400000,0,2490,1064,717,1164,29324,477,79900,99,5,2.3399999,16,11,3878,-75.6921005,41.4043999,LACKAWANNA
186,654,CURRY DONUTS,1001 S MAIN AVE,SCRANTON,PA,Pennsylvania,18504,546105,72221310,336, ,6,B, , ,A,000000000,000000000,MA100,120138854,72221310.000000000000000,1980,785,1126,0.003161847100000,0,2490,1064,717,1164,29324,477,79900,99,5,2.3399999,16,11,3385,-75.6868973,41.4019012,LACKAWANNA
187,655,DUNKIN' DONUTS,1325 S MAIN AVE,SCRANTON,PA,Pennsylvania,18504,546105,72221310,280,2,5,B,D, ,A,307608455,902093095,MS100,403564794,72221310.000000000000000,2326,1165,767,0.000465145500000,0,2490,1064,717,1164,29324,477,79900,99,5,2.3399999,16,11,3848,-75.6887970,41.3969002,LACKAWANNA
188,656,DUNKIN' DONUTS,1141 MOOSIC ST,SCRANTON,PA,Pennsylvania,18505,546105,72221310,1120,2,20,D,D, ,B,307608455,902093095,MS100,120116447,72221310.000000000000000,0,1896,1360,0.002740638400000,0,2899,1228,764,1322,35348,454,75200,98,5,2.3599999,16,5,2044,-75.6483002,41.3961983,LACKAWANNA
189,657,CURRY DONUTS,201 N MAIN ST # 1,OLD FORGE,PA,Pennsylvania,18518,546105,72221310,280, ,5,B, , ,A,000000000,000000000,MA100,402358928,72221310.000000000000000,806,4209,2780,0.000932474000000,0,5810,2484,1665,2630,32647,438,89000,99,6,2.3399999,15,7,9706,-75.7313004,41.3731003,LACKAWANNA
190,659,DUNKIN' DONUTS,742 DAVIS ST,SCRANTON,PA,Pennsylvania,18505,546105,72221310,1400,2,25,D,D, ,B,307608455,902093095,MA100,677231565,72221310.000000000000000,566,1477,2715,0.000941920300000,0,1670,658,483,699,39028,448,90600,100,3,2.5000000,14,10,5967,-75.6894989,41.3758011,LACKAWANNA
191,660,JOYCE'S CAFE,2734 BIRNEY AVE,SCRANTON,PA,Pennsylvania,18505,581228,72221305,400, ,10,C, , ,B,000000000,000000000,MA100,402816773,72221305.000000000000000,1000,1709,2114,0.000941920300000,0,1670,658,483,699,39028,448,90600,100,3,2.5000000,14,10,5335,-75.6893997,41.3811989,LACKAWANNA
192,661,STARBUCKS,1011 SHOPPES BLVD,MOOSIC,PA,Pennsylvania,18507,581228,72221305,640,2,16,C,4, ,B,000000000,303651459,MS100,629476235,72221305.000000000000000,849,2545,4583,0.000339471900000,1,5575,2080,1478,2206,38987,480,93500,99,4,2.6800001,19,8,7061,-75.6806030,41.3637009,LACKAWANNA
193,662,DUNKIN' DONUTS,3525 BIRNEY AVE,SCRANTON,PA,Pennsylvania,18507,546105,72221310,1064,2,19,C,D, ,B,307608455,902093095,MA92*,705691277,72221310.000000000000000,894,2130,2952,0.000339471900000,0,5575,2080,1478,2206,38987,480,93500,99,4,2.6800001,19,8,7310,-75.7031021,41.3725014,LACKAWANNA
194,1239,DUNKIN' DONUTS,675 LANCASTER RD,MANHEIM,PA,Pennsylvania,17545,546105,72221310,448,2,8,B,D, ,B,307608455,902093095,MA100,688666940,72221310.000000000000000,5894,8932,1975,0.000114787100000,0,7312,2623,2088,2671,47205,531,122400,97,7,2.7900000,15,4,14214,-76.3821030,40.1506004,LANCASTER
195,1240,HARTING'S BAKERY INC,1212 READING RD,BOWMANSVILLE,PA,Pennsylvania,17507,546105,72221310,1120, ,20,D, , ,B,000000000,000000000,Mz100,009167479,72221310.000000000000000,361,8476,8199,0.000113245500000,0,6699,2114,1833,2161,51505,563,134700,97,9,3.1700001,12,9,39654,-76.0151978,40.1969986,LANCASTER
196,1241,STARBUCKS,PENNSYLVANIA TPKE 289.9,BOWMANSVILLE,PA,Pennsylvania,17507,581228,72221305,640,2,16,C,4, ,B,000000000,303651459,Mz100,637498130,72221305.000000000000000,361,8476,8199,0.000113245500000,0,6699,2114,1833,2161,51505,563,134700,97,9,3.1700001,12,9,39654,-76.0151978,40.1969986,LANCASTER
197,1242,DUNKIN' DONUTS,3190 LEBANON RD,MANHEIM,PA,Pennsylvania,17545,546105,72221310,392,2,7,B,D, ,B,307608455,902093095,MS100,688580802,72221310.000000000000000,728,9854,8379,0.000074101900000,0,4268,1499,1224,1515,51705,505,128600,97,7,2.8499999,10,4,28230,-76.4364014,40.2374001,LANCASTER
198,1243,DUNKIN' DONUTS,2055 N READING RD,DENVER,PA,Pennsylvania,17517,546105,72221310,1120,2,20,D,D, ,B,307608455,902093095,MA100,255590622,72221310.000000000000000,200,8929,3245,0.000217212600000,0,4714,1617,1231,1674,45580,548,113200,96,7,2.9200001,14,6,34271,-76.0978012,40.2215996,LANCASTER
199,1244,JAVATEAS,1 DUTCHLAND AVE,EPHRATA,PA,Pennsylvania,17522,581228,72221305,400, ,10,C, , ,B,000000000,000000000,MS100,632767471,72221305.000000000000000,3130,4727,566,0.000215530300000,0,8110,2747,2180,2790,47847,598,117700,97,7,2.9500000,14,6,25044,-76.1763992,40.1920013,LANCASTER
200,1245,COZY COFFEE SHOP,955 N STATE ST,EPHRATA,PA,Pennsylvania,17522,581228,72221305,400, ,10,C, , ,B,000000000,000000000,MA100,404600930,72221305.000000000000000,2025,4416,1747,0.000215530300000,0,8110,2747,2180,2790,47847,598,117700,97,7,2.9500000,14,6,26856,-76.1548996,40.1936989,LANCASTER
201,1246,DUNKIN' DONUTS,511 FURNACE HILLS PIKE,LITITZ,PA,Pennsylvania,17543,546105,72221310,280,2,5,B,D, ,A,307608455,902093095,MA100,688642743,72221310.000000000000000,6754,5400,2242,0.000332936200000,0,8376,2943,2434,3018,54124,609,131200,97,7,2.8499999,25,3,15451,-76.3081970,40.1684990,LANCASTER
202,1247,BREW HOUSE & BISTRO,52 E MAIN ST,EPHRATA,PA,Pennsylvania,17522,581228,72221305,40, ,1,A, , ,A,000000000,000000000,MS100,657158291,72221305.000000000000000,2220,5377,2378,0.002146607600000,0,6905,2830,1881,2923,42842,511,96800,97,7,2.4400001,14,5,23562,-76.1763992,40.1781006,LANCASTER
203,1248,DUNKIN' DONUTS,128TH DIVISION HWY,LITITZ,PA,Pennsylvania,17543,546105,72221310,280,2,5,B,D, ,A,307608455,902093095,Mz100,402978889,72221310.000000000000000,6243,4793,2272,0.001758190600000,0,5155,2140,1393,2189,39803,564,109900,97,7,2.4100001,22,3,13884,-76.2981033,40.1562004,LANCASTER
204,1249,DUNKIN' DONUTS,366 W MAIN ST,LEOLA,PA,Pennsylvania,17540,546105,72221310,280,2,5,B,D, ,A,307608455,902093095,MA90*,397699893,72221310.000000000000000,6172,11705,5144,0.000170744000000,0,6766,2201,1822,2283,51503,482,125000,96,8,3.0699999,17,8,20278,-76.1473999,40.0928001,LANCASTER
205,1250,STARBUCKS,988 LITITZ PIKE # A,LITITZ,PA,Pennsylvania,17543,581228,72221305,1000,2,25,D,4, ,B,000000000,303651459,MA100,631971629,72221305.000000000000000,4847,5436,587,0.000336997100000,0,7099,2634,2096,2689,56067,742,125700,98,7,2.7000000,32,5,10156,-76.3044968,40.1310997,LANCASTER
206,1251,DUNKIN' DONUTS,3180 OREGON PIKE # HESS,LEOLA,PA,Pennsylvania,17540,546105,72221310,280,2,5,B,D, ,A,307608455,902093095,MS100,688580729,72221310.000000000000000,200,8148,5548,0.000345425900000,0,9953,3504,2721,3593,67594,588,185400,95,5,2.8399999,40,4,11674,-76.2444992,40.1142006,LANCASTER
207,1252,DUNKIN' DONUTS,1660 ROHRERSTOWN RD # HESS,LANCASTER,PA,Pennsylvania,17601,546105,72221310,560,2,10,C,D, ,B,307608455,902093095,MA100,688086727,72221310.000000000000000,200,1943,2293,0.000244768800000,0,5782,2178,1760,2233,52550,647,114800,94,6,2.6500001,27,3,4024,-76.3510971,40.0825996,LANCASTER
208,1253,DISCOVERY BIN,5513 MAIN ST,EAST PETERSBURG,PA,Pennsylvania,17520,581228,72221305,400, ,10,C, , ,B,000000000,000000000,MS98*,627159627,72221305.000000000000000,1300,1840,2607,0.000244768800000,0,5782,2178,1760,2233,52550,647,114800,94,6,2.6500001,27,3,5045,-76.3492966,40.0926018,LANCASTER
209,1254,DUNKIN' DONUTS,2006 MILLER RD,EAST PETERSBURG,PA,Pennsylvania,17520,546105,72221310,280,2,5,B,D, ,A,307608455,902093095,MA98*,719943599,72221310.000000000000000,1300,1922,2665,0.000244768800000,0,5782,2178,1760,2233,52550,647,114800,94,6,2.6500001,27,3,5179,-76.3496017,40.0936012,LANCASTER
210,1255,HIGHER GROUNDS CAFE,22 E MAIN ST,MT JOY,PA,Pennsylvania,17552,581228,72221305,120, ,3,A, , ,A,000000000,000000000,MA100,392668190,72221305.000000000000000,1879,8888,1469,0.001203582400000,0,6765,2844,1904,2957,45127,530,105300,97,6,2.3800001,17,7,20800,-76.5020981,40.1096001,LANCASTER
211,1256,DUNKIN' DONUTS,807 E MAIN ST,MT JOY,PA,Pennsylvania,17552,546105,72221310,224,2,4,A,D, ,A,307608455,902093095,MA90*,656399714,72221310.000000000000000,1400,8593,1534,0.001203582400000,0,6765,2844,1904,2957,45127,530,105300,97,6,2.3800001,17,7,23201,-76.5225983,40.1147003,LANCASTER
212,1257,DUNKIN' DONUTS,1838 FRUITVILLE PIKE,LANCASTER,PA,Pennsylvania,17601,546105,72221310,280,2,5,B,D, ,A,307608455,902093095,MS100,719943607,72221310.000000000000000,283,1901,1080,0.000770049900000,0,7657,2849,2318,2895,61656,744,133200,92,5,2.6900001,41,3,1537,-76.3190994,40.0724983,LANCASTER
213,1258,STARBUCKS,1950 FRUITVILLE PIKE,LANCASTER,PA,Pennsylvania,17601,581228,72221305,640,2,16,C,4, ,B,000000000,303651459,MA100,637498676,72221305.000000000000000,500,1806,1254,0.000770049900000,0,7657,2849,2318,2895,61656,744,133200,92,5,2.6900001,41,3,1784,-76.3225021,40.0751991,LANCASTER
214,1259,ASHTONS CAFE & BAKERY,555 GREENFIELD RD,LANCASTER,PA,Pennsylvania,17601,581228,72221305,400, ,10,C, , ,B,000000000,000000000,MA100,400785408,72221305.000000000000000,510,5069,3526,0.000271272500000,0,4192,1670,1266,1729,51957,774,140700,95,7,2.5100000,26,7,8208,-76.2526016,40.0541000,LANCASTER
215,1260,DUNKIN' DONUTS,1792 COLUMBIA AVE,COLUMBIA,PA,Pennsylvania,17512,546105,72221310,280,2,5,B,D, ,A,307608455,902093095,MA100,688239961,72221310.000000000000000,600,12663,100,0.000286390300000,0,5430,2029,1616,2081,43306,533,110600,90,9,2.6800001,15,8,17078,-76.4732971,40.0320015,LANCASTER
216,1261,COFFEE BEANERY,142 PARK CITY CTR,LANCASTER,PA,Pennsylvania,17601,581228,72221305,400,2,10,C,9, ,B,000000000,143487536,MS100,403727116,72221305.000000000000000,224,1673,2283,0.000307057800000,0,2361,772,486,815,41429,583,103800,82,6,3.0699999,17,10,1703,-76.3404007,40.0654984,LANCASTER
217,1262,STARBUCKS,142 PARK CITY CTR # E441,LANCASTER,PA,Pennsylvania,17601,581228,72221305,600,2,15,C,4, ,B,000000000,303651459,MS100,655960300,72221305.000000000000000,224,1673,2283,0.000307057800000,0,2361,772,486,815,41429,583,103800,82,6,3.0699999,17,10,1703,-76.3404007,40.0654984,LANCASTER
218,1263,DUNKIN' DONUTS,1906 COLUMBIA AVE,LANCASTER,PA,Pennsylvania,17603,546105,72221310,672,2,12,C,D, ,B,307608455,902093095,MA100,649848579,72221310.000000000000000,1980,3459,1090,0.001007031300000,0,4412,1926,1260,1989,46587,754,124100,94,5,2.2900000,34,5,4994,-76.3566971,40.0385017,LANCASTER
219,1264,DUNKIN' DONUTS,2120 LINCOLN HWY E,LANCASTER,PA,Pennsylvania,17602,546105,72221310,560,2,10,C,D, ,B,307608455,902093095,MA100,659109615,72221310.000000000000000,0,2788,4106,0.000899015400000,0,4404,1842,1222,1921,43116,675,108800,90,7,2.3900001,19,3,11421,-76.2322998,40.0302010,LANCASTER
220,1265,STARBUCKS,1398 COLUMBIA AVE,LANCASTER,PA,Pennsylvania,17603,581228,72221305,600,2,15,C,4, ,B,000000000,303651459,MS100,385256714,72221305.000000000000000,2417,2602,1637,0.001222403300000,0,2497,1071,814,1094,80236,909,219300,96,6,2.3299999,64,2,4040,-76.3412018,40.0381012,LANCASTER
221,1266,FRACTURED PRUNE,255 N QUEEN ST,LANCASTER,PA,Pennsylvania,17603,546105,72221310,112, ,2,A, , ,A,000000000,000000000,MA100,403727195,72221310.000000000000000,2062,282,482,0.003565813000000,0,3895,1803,774,2111,21922,441,68200,71,6,2.2500000,11,24,3656,-76.3065033,40.0425987,LANCASTER
222,1267,SUPERIOR CAFES LLC,255 N QUEEN ST,LANCASTER,PA,Pennsylvania,17603,546105,72221310,112, ,2,A, , ,A,000000000,000000000,MA100,696180447,72221310.000000000000000,2062,282,482,0.003565813000000,0,3895,1803,774,2111,21922,441,68200,71,6,2.2500000,11,24,3656,-76.3065033,40.0425987,LANCASTER
223,1268,PICKLES CAFE,323 W LEMON ST,LANCASTER,PA,Pennsylvania,17603,581228,72221305,80, ,2,A, , ,A,000000000,000000000,MA100,365357458,72221305.000000000000000,2000,691,652,0.005902116800000,0,4731,1503,711,1637,31734,503,81300,87,5,3.1500001,36,17,3160,-76.3125992,40.0438004,LANCASTER
224,1269,DUNKIN' DONUTS,5 HARTMAN BRIDGE RD,LANCASTER,PA,Pennsylvania,17602,546105,72221310,280,2,5,B,D, ,A,307608455,902093095,Mz100,402978882,72221310.000000000000000,762,3917,4691,0.000233406400000,0,5861,2221,1570,2370,45494,640,130300,92,7,2.6400001,18,8,16658,-76.1897964,40.0148010,LANCASTER
225,1270,STARBUCKS,2385 COVERED BRIDGE DR,LANCASTER,PA,Pennsylvania,17602,581228,72221305,280,2,7,B,4, ,B,000000000,303651459,MS100,637498692,72221305.000000000000000,200,2544,5356,0.000233406400000,0,5861,2221,1570,2370,45494,640,130300,92,7,2.6400001,18,8,14521,-76.2042999,40.0261002,LANCASTER
226,1271,STARBUCKS,2208 LINCOLN HWY E,LANCASTER,PA,Pennsylvania,17602,581228,72221305,800,2,20,D,4, ,B,000000000,303651459,MA100,550469746,72221305.000000000000000,0,2464,4472,0.000233406400000,0,5861,2221,1570,2370,45494,640,130300,92,7,2.6400001,18,8,12458,-76.2233963,40.0279007,LANCASTER
227,1272,PRINCE STREET CAFE,15 N PRINCE ST,LANCASTER,PA,Pennsylvania,17603,581228,72221305,1000, ,25,D, , ,B,000000000,000000000,MS100,641051172,72221305.000000000000000,2452,494,254,0.003565813000000,0,2733,1397,514,1454,19636,443,94600,56,9,1.8400000,15,30,4123,-76.3078003,40.0382004,LANCASTER
228,1273,DUNKIN' DONUTS,60 N QUEEN ST,LANCASTER,PA,Pennsylvania,17603,546105,72221310,168,2,3,A,D, ,A,307608455,902093095,MS100,629595901,72221310.000000000000000,2377,371,459,0.003565813000000,0,2733,1397,514,1454,19636,443,94600,56,9,1.8400000,15,30,4118,-76.3059006,40.0391006,LANCASTER
229,1274,SQUARE ONE COFFEE,145 N DUKE ST,LANCASTER,PA,Pennsylvania,17602,581228,72221305,280, ,7,B, , ,B,000000000,000000000,MA100,586237505,72221305.000000000000000,2214,342,436,0.003565813000000,0,2733,1397,514,1454,19636,443,94600,56,9,1.8400000,15,30,3979,-76.3041992,40.0410995,LANCASTER
230,1275,CHESTNUT HILL CAFE,532 W CHESTNUT ST,LANCASTER,PA,Pennsylvania,17603,581228,72221305,400, ,10,C, , ,B,000000000,000000000,MA100,666595269,72221305.000000000000000,2408,941,323,0.006422121400000,0,3176,1494,727,1694,33644,474,87700,79,8,2.1300001,32,16,3510,-76.3162994,40.0400009,LANCASTER
231,1276,HESS STATION,5387 LINCOLN HWY,GAP,PA,Pennsylvania,17527,546105,72221310,112, ,2,A, , ,A,000000000,000000000,MA100,688643030,72221310.000000000000000,6836,6364,2145,0.000112305600000,0,4930,1580,1322,1628,40380,605,128200,97,10,3.1199999,9,9,35838,-76.0173035,39.9916000,LANCASTER
232,1277,DUNKIN' DONUTS,5387 LINCOLN HWY,GAP,PA,Pennsylvania,17527,546105,72221310,280,2,5,B,D, ,A,307608455,902093095,MA100,402978870,72221310.000000000000000,6836,6364,2145,0.000112305600000,0,4930,1580,1322,1628,40380,605,128200,97,10,3.1199999,9,9,35838,-76.0173035,39.9916000,LANCASTER
233,1278,MADRE PRAISE CAFE,302 S PRINCE ST,LANCASTER,PA,Pennsylvania,17603,581228,72221305,400, ,10,C, , ,B,000000000,000000000,MA100,403727117,72221305.000000000000000,3081,970,182,0.004991057400000,0,4922,1560,1179,1809,30391,498,58600,51,10,3.1600001,5,30,4856,-76.3069000,40.0329018,LANCASTER
234,1279,LATTE LUV ESPRESSO,3314 LINCOLN HWY E,PARADISE,PA,Pennsylvania,17562,581228,72221305,240, ,6,B, , ,A,000000000,000000000,MS100,624027678,72221305.000000000000000,7303,9757,6078,0.000107085200000,0,4698,1545,1224,1600,42047,527,128100,98,8,3.0400000,9,8,26127,-76.1035995,40.0045013,LANCASTER
235,1281,GEORGE STREET CAFE,304 N GEORGE ST,MILLERSVILLE,PA,Pennsylvania,17551,581228,72221305,480, ,12,C, , ,B,000000000,000000000,MA100,413488214,72221305.000000000000000,5371,3872,3717,0.001324961600000,0,5930,1448,786,1630,40116,662,116600,92,3,4.0900002,30,21,9410,-76.3563004,40.0028992,LANCASTER
236,1282,JAVA TEA GOURMET COFFEE CAFE,2 S PRINCE ST,MILLERSVILLE,PA,Pennsylvania,17551,581228,72221305,360, ,9,B, , ,B,000000000,000000000,MA100,649514841,72221305.000000000000000,5993,4560,4713,0.001257925900000,0,5930,1448,786,1630,40116,662,116600,92,3,4.0900002,30,21,10446,-76.3584976,39.9958992,LANCASTER
237,1283,COUNTRY COFFEE,2218 BEAVER VALLEY PIKE,NEW PROVIDENCE,PA,Pennsylvania,17560,581228,72221305,80, ,2,A, , ,A,000000000,000000000,MA100,685578841,72221305.000000000000000,7800,15524,6934,0.000134172100000,0,6651,2391,1952,2486,45018,649,104200,97,7,2.7800000,9,6,26357,-76.1878967,39.9155006,LANCASTER
238,1311,CYGNET STUDIO,336 S MARKET ST,ELIZABETHTOWN,PA,Pennsylvania,17022,581228,72221305,40, ,1,A, , ,A,000000000,000000000,MA100,900429481,72221305.000000000000000,2302,12962,2672,0.001733614900000,0,6154,1937,1074,2056,38420,515,109500,97,4,3.1800001,24,6,26730,-76.6032028,40.1473007,LANCASTER
239,908,MUGSIES COFFEE HOUSE LLC,139 S MARKET ST,NEW WILMINGTON,PA,Pennsylvania,16142,581228,72221305,240, ,6,B, , ,A,000000000,000000000,MS100,238599757,72221305.000000000000000,5420,17081,11022,0.000942963400000,0,2459,587,313,609,36734,495,119100,100,2,4.1799998,53,16,105617,-80.3330002,41.1217003,LAWRENCE
240,909,DUNKIN' DONUTS,2503 WILMINGTON RD,NEW CASTLE,PA,Pennsylvania,16105,546105,72221310,2464,2,44,D,D, ,B,307608455,902093095,MS100,004466355,72221310.000000000000000,2746,7331,2184,0.000277756700000,0,6161,2485,1894,2593,39761,441,99200,99,4,2.4800000,26,3,93914,-80.3544998,41.0295982,LAWRENCE
241,910,DUNKIN' DONUTS,134 N MILL ST,NEW CASTLE,PA,Pennsylvania,16101,546105,72221310,1008,2,18,C,D, ,B,307608455,902093095,MA100,304828635,72221310.000000000000000,3183,4607,2777,0.000739698200000,0,2559,1049,618,1227,12464,250,32800,41,9,2.3099999,4,40,89761,-80.3442993,41.0021019,LAWRENCE
242,911,YOKI'S COFFEE SHOP,1402 E WASHINGTON ST,NEW CASTLE,PA,Pennsylvania,16101,581228,72221305,40, ,1,A, , ,A,000000000,000000000,MA100,245854609,72221305.000000000000000,1432,4587,902,0.002158772000000,0,4641,1950,1396,2043,30317,420,42800,94,6,2.3800001,9,13,86612,-80.3256989,40.9850998,LAWRENCE
243,912,STEAMERS COFFEE & TEA CO,2702 OLD PITTSBURGH RD,NEW CASTLE,PA,Pennsylvania,16101,581228,72221305,200, ,5,B, , ,A,000000000,000000000,MA100,221949407,72221305.000000000000000,762,6679,3425,0.000090923700000,0,4478,1724,1323,1825,35833,504,62800,97,6,2.5999999,10,7,83429,-80.3162003,40.9645996,LAWRENCE
244,913,ELLWOOD STATION,513 SPRING AVE,ELLWOOD CITY,PA,Pennsylvania,16117,546105,72221310,224, ,4,A, , ,A,000000000,000000000,MS97*,649565298,72221310.000000000000000,5608,15865,861,0.001745196000000,0,2899,1316,755,1484,23934,418,64600,96,6,2.2000000,13,18,68245,-80.2879028,40.8604012,LAWRENCE
245,265,YON KWON DOUGHNUT SHOP,6901 MARKET ST,UPPER DARBY,PA,Pennsylvania,19082,546105,72221310,56, ,1,A, , ,A,000000000,000000000,MS100,464414325,72221310.000000000000000,0,1443,323,0.003427592100000,0,4140,1628,1077,1718,41429,601,73100,77,8,2.5400000,18,11,11046,-75.2589035,39.9617996,DELAWARE
246,270,DUNKIN' DONUTS,2804 W TOWNSHIP LINE RD,HAVERTOWN,PA,Pennsylvania,19083,546105,72221310,280,2,5,B,D, ,A,307608455,902093095,Mz100,649187481,72221310.000000000000000,0,1516,2526,0.003238350100000,0,2478,937,735,931,60727,628,159300,96,6,2.5500000,38,4,15808,-75.3015976,39.9651985,DELAWARE
247,271,STARBUCKS,1891 S STATE RD,UPPER DARBY,PA,Pennsylvania,19082,581228,72221305,640,2,16,C,4, ,B,000000000,303651459,MS100,682122296,72221305.000000000000000,700,1009,1298,0.004246744400000,0,5086,2051,1278,2154,43042,564,99100,91,6,2.4800000,23,8,14217,-75.2873993,39.9594994,DELAWARE
248,272,DUNKIN' DONUTS,8910 W CHESTER PIKE,UPPER DARBY,PA,Pennsylvania,19082,546105,72221310,280,2,5,B,D, ,A,307608455,902093095,MA100,659205173,72221310.000000000000000,0,1315,1977,0.004246744400000,0,5086,2051,1278,2154,43042,564,99100,91,6,2.4800000,23,8,14500,-75.2897034,39.9674988,DELAWARE
249,285,DUNKIN' DONUTS,1500 GARRETT RD,UPPER DARBY,PA,Pennsylvania,19082,546105,72221310,280,2,5,B,D, ,A,307608455,902093095,MS100,402047330,72221310.000000000000000,900,1656,914,0.005736402000000,0,5114,1734,1324,1831,46357,580,93800,69,6,2.9500000,29,9,12719,-75.2736969,39.9552994,DELAWARE
250,286,DUNKIN' DONUTS,712 N LANSDOWNE AVE,DREXEL HILL,PA,Pennsylvania,19026,546105,72221310,224,2,4,A,D, ,A,307608455,902093095,MS100,992608950,72221310.000000000000000,900,1045,1224,0.006427223800000,0,2902,1241,781,1288,41788,639,93800,99,9,2.3000000,25,5,14201,-75.2872009,39.9581985,DELAWARE
251,290,DUNKIN' DONUTS,126 S 69TH ST,UPPER DARBY,PA,Pennsylvania,19082,546105,72221310,448,2,8,B,D, ,B,307608455,902093095,MS100,624172755,72221310.000000000000000,412,1394,310,0.009366312500000,0,3853,1124,999,1188,37593,558,70700,27,7,3.4300001,20,21,10973,-75.2581024,39.9576988,DELAWARE
252,305,MING COFFEE SHOP,730 BURMONT RD,DREXEL HILL,PA,Pennsylvania,19026,581228,72221305,40, ,1,A, , ,A,000000000,000000000,MS100,586910614,72221305.000000000000000,1063,1863,1517,0.002421036500000,0,1942,727,486,757,57135,587,160300,98,3,2.7400000,32,5,16688,-75.3087997,39.9497986,DELAWARE
253,369,DUNKIN' DONUTS,23 E BALTIMORE AVE,LANSDOWNE,PA,Pennsylvania,19050,546105,72221310,280,2,5,B,D, ,A,307608455,902093095,MA100,403898826,72221310.000000000000000,2236,1880,1096,0.004384270700000,0,3732,1470,969,1595,45774,631,93900,72,7,2.5400000,28,5,12857,-75.2711029,39.9384995,DELAWARE
254,370,REGENCY CAFE,29 N LANSDOWNE AVE,LANSDOWNE,PA,Pennsylvania,19050,581228,72221305,400, ,10,C, , ,B,000000000,000000000,MA100,688320357,72221305.000000000000000,2371,1780,1086,0.004384270700000,0,3732,1470,969,1595,45774,631,93900,72,7,2.5400000,28,5,12959,-75.2723999,39.9393005,DELAWARE
255,380,HIBERNIA DELI COFFEE SHOP,3711 GARRETT RD,DREXEL HILL,PA,Pennsylvania,19026,581228,72221305,40, ,1,A, , ,A,000000000,000000000,MA100,629810409,72221305.000000000000000,2052,2068,1569,0.003821505000000,0,3176,1251,872,1305,51547,639,123200,98,7,2.5599999,29,6,15466,-75.2967987,39.9445000,DELAWARE
256,406,DUNKIN' DONUTS,100 BALTIMORE PIKE,SPRINGFIELD,PA,Pennsylvania,19064,546105,72221310,1456,2,26,D,D, ,B,307608455,902093095,MA100,485850077,72221310.000000000000000,2404,3525,1019,0.002214783800000,0,5287,1898,1525,1937,64943,755,156000,97,6,2.7900000,34,3,18054,-75.3141022,39.9238014,DELAWARE
257,426,DUNKIN' DONUTS,1201 MACDADE BLVD,COLLINGDALE,PA,Pennsylvania,19023,546105,72221310,504,2,9,B,D, ,B,307608455,902093095,MA92*,262704265,72221310.000000000000000,424,1825,547,0.003954140400000,0,3560,1307,951,1378,44856,645,74700,94,7,2.7200000,10,7,15816,-75.2838974,39.9087982,DELAWARE
258,428,DUNKIN' DONUTS,146 N MACDADE BLVD,GLENOLDEN,PA,Pennsylvania,19036,546105,72221310,280,2,5,B,D, ,A,307608455,902093095,MS100,696667724,72221310.000000000000000,424,1832,665,0.002843116100000,0,2983,1179,829,1209,45387,716,82500,91,6,2.5300000,8,10,16329,-75.2879028,39.9071007,DELAWARE
259,430,DUNKIN' DONUTS,1100 CHESTER PIKE,SHARON HILL,PA,Pennsylvania,19079,546105,72221310,336,2,6,B,D, ,A,307608455,902093095,MS100,395844483,72221310.000000000000000,0,2190,855,0.002842000800000,0,5468,2088,1448,2246,42436,554,72800,71,7,2.6199999,16,11,14853,-75.2738037,39.9086990,DELAWARE
260,434,DUNKIN' DONUTS,1601 MACDADE BLVD,FOLSOM,PA,Pennsylvania,19033,546105,72221310,224,2,4,A,D, ,A,307608455,902093095,MA100,591341326,72221310.000000000000000,141,2547,1229,0.002718747000000,0,7195,2787,2034,2872,49657,669,115900,96,5,2.5799999,19,3,20086,-75.3175964,39.8947983,DELAWARE
261,435,DUNKIN' DONUTS,1300 MACDADE BLVD,WOODLYN,PA,Pennsylvania,19094,546105,72221310,280,2,5,B,D, ,A,307608455,902093095,MS100,620673145,72221310.000000000000000,539,3468,1781,0.002007340500000,0,6443,2590,1800,2633,45296,582,123200,91,6,2.4900000,20,8,23916,-75.3447037,39.8778992,DELAWARE
262,436,DUNKIN' DONUTS,919 LINCOLN AVE,PROSPECT PARK,PA,Pennsylvania,19076,546105,72221310,168,2,3,A,D, ,A,307608455,902093095,MS100,177811882,72221310.000000000000000,0,2105,2084,0.003419662600000,0,6594,2578,1687,2683,45244,625,98700,95,6,2.5599999,15,4,19898,-75.3080978,39.8853989,DELAWARE
263,437,DUNKIN' DONUTS,600 CHESTER PIKE,NORWOOD,PA,Pennsylvania,19074,546105,72221310,392,2,7,B,D, ,B,307608455,902093095,MA100,976815613,72221310.000000000000000,0,2086,2648,0.003419662600000,0,6594,2578,1687,2683,45244,625,98700,95,6,2.5599999,15,4,19248,-75.3019028,39.8862991,DELAWARE
264,438,INDUSTRY COFFEE WORKS,908 HYATT ST,CHESTER,PA,Pennsylvania,19013,581228,72221305,400, ,10,C, , ,B,000000000,000000000,MA100,403989695,72221305.000000000000000,100,4228,1045,0.003824543600000,0,2722,808,695,1002,31042,669,28700,22,14,3.2500000,5,33,26305,-75.3522034,39.8566017,DELAWARE
265,481,DUNKIN' DONUTS,1165 W BALTIMORE PIKE # B,MEDIA,PA,Pennsylvania,19063,546105,72221310,280,2,5,B,D, ,A,307608455,902093095,MS100,695379511,72221310.000000000000000,0,4397,3619,0.000327199100000,0,5436,1688,1056,1726,58143,1185,213100,94,3,3.2200000,35,5,20047,-75.4369965,39.9132004,DELAWARE
266,486,DUNKIN' DONUTS,1110 BALTIMORE PIKE,GLEN MILLS,PA,Pennsylvania,19342,546105,72221310,280,2,5,B,D, ,A,307608455,902093095,MS100,217685858,72221310.000000000000000,0,3645,1477,0.000500241500000,0,4882,1622,1420,1650,91225,767,241900,97,7,3.0100000,50,2,22064,-75.5429001,39.8818016,DELAWARE
267,487,DUNKIN' DONUTS,5101 PENNELL RD,MEDIA,PA,Pennsylvania,19063,546105,72221310,336,2,6,B,D, ,A,307608455,902093095,MS100,266242254,72221310.000000000000000,2550,4140,3610,0.000785253900000,0,4501,1627,1099,1673,52917,715,120400,94,5,2.7700000,35,8,23543,-75.4309998,39.8883018,DELAWARE
268,488,DUNKIN' DONUTS,257 WILMINGTON W CHESTER PIKE,CHADDS FORD,PA,Pennsylvania,19317,546105,72221310,280,2,5,B,D, ,A,307608455,902093095,MS100,415415173,72221310.000000000000000,316,3770,3689,0.000500241500000,0,5051,1782,1505,1901,80804,558,240400,97,8,2.8299999,41,5,26231,-75.5390015,39.8527985,DELAWARE
269,489,STARBUCKS,511 WILMINGTON PIKE,GLEN MILLS,PA,Pennsylvania,19342,581228,72221305,600,2,15,C,4, ,B,000000000,303651459,MS100,528899305,72221305.000000000000000,0,3536,2232,0.000500241500000,0,5051,1782,1505,1901,80804,558,240400,97,8,2.8299999,41,5,24663,-75.5437012,39.8638992,DELAWARE
270,490,CAFE PREGO,3488 CONCORD RD,ASTON,PA,Pennsylvania,19014,581228,72221305,400, ,10,C, , ,B,000000000,000000000,MS100,355685827,72221305.000000000000000,2184,4079,1825,0.001245740800000,0,6278,2265,1856,2333,56359,763,122500,96,7,2.7700000,15,5,26438,-75.4266968,39.8678017,DELAWARE
271,491,COFFEE STATION,3518 FOULK RD,GARNET VALLEY,PA,Pennsylvania,19060,581228,72221305,400, ,10,C, , ,B,000000000,000000000,MS97*,615769866,72221305.000000000000000,3622,5534,2404,0.000623811200000,0,6421,1988,1805,2017,84661,871,213000,94,8,3.2300000,41,2,28219,-75.4933014,39.8404007,DELAWARE
272,492,DUNKIN' DONUTS,608 CONCHESTER HWY,BOOTHWYN,PA,Pennsylvania,19061,546105,72221310,448,2,8,B,D, ,B,307608455,902093095,MA93*,929138725,72221310.000000000000000,2000,3919,3934,0.000707871800000,0,4431,1680,1265,1737,58042,659,124300,85,8,2.6400001,24,7,27878,-75.4502029,39.8502007,DELAWARE
273,495,DUNKIN' DONUTS,2343 CHICHESTER AVE,UPPER CHICHESTER,PA,Pennsylvania,19061,546105,72221310,280,2,5,B,D, ,A,307608455,902093095,MS100,715962452,72221310.000000000000000,500,4953,4541,0.000865692700000,0,4611,1727,1310,1815,46444,575,98700,84,6,2.6700001,9,8,30952,-75.4390030,39.8306999,DELAWARE
274,502,STARBUCKS,550 E LANCASTER AVE,WAYNE,PA,Pennsylvania,19087,581228,72221305,640,2,16,C,4, ,B,000000000,303651459,MA100,637501032,72221305.000000000000000,100,3117,1012,0.001020577300000,0,5449,1587,990,1658,87438,972,399200,92,4,3.4300001,69,3,3310,-75.3679962,40.0405998,DELAWARE
275,504,STARBUCKS,218 E LANCASTER AVE,WAYNE,PA,Pennsylvania,19087,581228,72221305,800,2,20,D,4, ,B,000000000,303651459,MA100,997387469,72221305.000000000000000,0,1952,1588,0.001194492000000,0,7176,3018,1797,3129,67500,873,232200,91,6,2.3800001,58,6,1604,-75.3833008,40.0438004,DELAWARE
276,505,SAXBY'S COFFEE,110 E LANCASTER AVE,RADNOR,PA,Pennsylvania,19087,581228,72221305,400, ,10,C, , ,B,000000000,000000000,MA94*,659880942,72221305.000000000000000,0,1950,1733,0.001194492000000,0,7176,3018,1797,3129,67500,873,232200,91,6,2.3800001,58,6,1263,-75.3871994,40.0439987,DELAWARE
277,515,STARBUCKS,3512 WEST CHESTER PIKE,NEWTOWN SQUARE,PA,Pennsylvania,19073,581228,72221305,640,2,16,C,4, ,B,000000000,303651459,MA100,637499120,72221305.000000000000000,0,3680,2245,0.000608305600000,0,4070,1624,1198,1663,58269,713,177300,96,5,2.5100000,36,4,9448,-75.3948975,39.9855995,DELAWARE
278,516,STARBUCKS,2500 W CHESTER PIKE,BROOMALL,PA,Pennsylvania,19008,581228,72221305,600,2,15,C,4, ,B,000000000,303651459,MA100,624535464,72221305.000000000000000,0,4028,874,0.001370025200000,0,5163,1703,1331,1731,60266,778,196300,94,5,3.0300000,37,4,10914,-75.3572006,39.9812012,DELAWARE
279,517,BURLAP & BEAN,204 S NEWTOWN STREET RD,NEWTOWN SQUARE,PA,Pennsylvania,19073,581228,72221305,320, ,8,B, , ,B,000000000,000000000,MS100,401710319,72221305.000000000000000,900,3608,2753,0.000608305600000,0,4321,1731,1189,1796,54694,884,186200,96,5,2.5000000,38,4,10621,-75.3977966,39.9775009,DELAWARE
280,518,STARBUCKS,4895 WEST CHESTER PIKE,NEWTOWN SQUARE,PA,Pennsylvania,19073,581228,72221305,600,2,15,C,4, ,B,000000000,303651459,MS100,624535100,72221305.000000000000000,0,6484,2041,0.000158900200000,0,3918,1450,1037,1515,88303,2001,290900,91,5,2.7000000,49,1,12221,-75.4431992,39.9751015,DELAWARE
281,519,DUNKIN' DONUTS,901 W CHESTER PIKE,HAVERTOWN,PA,Pennsylvania,19083,546105,72221310,280,2,5,B,D, ,A,307608455,902093095,MA100,967469743,72221310.000000000000000,100,1586,2431,0.003477017900000,0,4136,1484,1171,1518,54075,1023,145400,98,7,2.7900000,28,2,14784,-75.3107986,39.9716988,DELAWARE
282,520,STARBUCKS,1280 W CHESTER PIKE,HAVERFORD,PA,Pennsylvania,19041,581228,72221305,680,2,17,C,4, ,B,000000000,303651459,MS89*,557293404,72221305.000000000000000,0,1985,2029,0.001464827600000,0,4136,1484,1171,1518,54075,1023,145400,98,7,2.7900000,28,2,14079,-75.3190994,39.9729004,DELAWARE
283,521,STARBUCKS,1903 SPROUL RD # 923,BROOMALL,PA,Pennsylvania,19008,581228,72221305,640,2,16,C,4, ,B,000000000,303651459,MS100,958862989,72221305.000000000000000,1063,3247,2197,0.001131833300000,0,4534,1709,1231,1746,45871,791,169200,89,4,2.6500001,23,7,14227,-75.3544998,39.9575996,DELAWARE
284,522,DUNKIN' DONUTS,5060 TOWNSHIP LINE RD,DREXEL HILL,PA,Pennsylvania,19026,546105,72221310,112,2,2,A,D, ,A,307608455,902093095,MS100,527404644,72221310.000000000000000,0,2441,1068,0.002421036500000,0,3780,1584,1017,1635,52218,713,138800,98,6,2.3900001,34,3,16144,-75.3228989,39.9539986,DELAWARE
285,523,DUNKIN' DONUTS,821 W SPROUL RD,SPRINGFIELD,PA,Pennsylvania,19064,546105,72221310,224,2,4,A,D, ,A,307608455,902093095,MS100,674441191,72221310.000000000000000,0,3357,1920,0.001349887000000,0,6446,2238,1892,2266,71456,827,178800,96,6,2.8599999,42,3,16963,-75.3499985,39.9389992,DELAWARE
286,524,DUNKIN' DONUTS,1158 BALTIMORE PIKE,SPRINGFIELD,PA,Pennsylvania,19064,546105,72221310,280,2,5,B,D, ,A,307608455,902093095,MS100,658356027,72221310.000000000000000,1393,857,1315,0.000979341400000,0,4163,1563,1211,1628,60536,723,167500,98,4,2.6600001,34,2,20566,-75.3469009,39.9137993,DELAWARE
287,525,STARBUCKS,1100 BALTIMORE PIKE,SPRINGFIELD,PA,Pennsylvania,19064,581228,72221305,480,2,12,C,4, ,B,000000000,303651459,MA100,217770700,72221305.000000000000000,1603,805,1198,0.000979341400000,0,4163,1563,1211,1628,60536,723,167500,98,4,2.6600001,34,2,20601,-75.3444977,39.9141006,DELAWARE
288,526,STARBUCKS,950 BALTIMORE PIKE,SPRINGFIELD,PA,Pennsylvania,19064,581228,72221305,160,2,4,A,4, ,A,000000000,303651459,MA100,663125268,72221305.000000000000000,1811,985,1086,0.000979341400000,0,4163,1563,1211,1628,60536,723,167500,98,4,2.6600001,34,2,20608,-75.3415985,39.9146996,DELAWARE
289,527,DUNKIN' DONUTS,400 E BALTIMORE AVE,MEDIA,PA,Pennsylvania,19063,546105,72221310,840,2,15,C,D, ,B,307608455,902093095,MA100,400663456,72221310.000000000000000,1393,800,765,0.002708631400000,0,3281,1626,607,1748,36327,637,130600,79,4,2.0000000,37,10,19609,-75.3828964,39.9159012,DELAWARE
290,528,COFFEE BEANERY,100 W STATE ST,MEDIA,PA,Pennsylvania,19063,581228,72221305,80,2,2,A,9, ,A,000000000,143487536,MA90*,624545349,72221305.000000000000000,1700,427,580,0.002708631400000,0,3281,1626,607,1748,36327,637,130600,79,4,2.0000000,37,10,19333,-75.3873978,39.9175987,DELAWARE
291,529,STARBUCKS,443 E BALTIMORE AVE,MEDIA,PA,Pennsylvania,19063,581228,72221305,600,2,15,C,4, ,B,000000000,303651459,MA90*,222768640,72221305.000000000000000,1131,622,1078,0.002708631400000,0,3281,1626,607,1748,36327,637,130600,79,4,2.0000000,37,10,19280,-75.3967972,39.9179001,DELAWARE
292,530,LA BELLE EPOQUE CAFE,38 W STATE ST # 1,MEDIA,PA,Pennsylvania,19063,581228,72221305,400, ,10,C, , ,B,000000000,000000000,MA100,203908868,72221305.000000000000000,1442,229,604,0.002708631400000,0,3281,1626,607,1748,36327,637,130600,79,4,2.0000000,37,10,19252,-75.3908005,39.9180984,DELAWARE
293,531,COFFEE CLUB,214 W STATE ST,MEDIA,PA,Pennsylvania,19063,581228,72221305,40, ,1,A, , ,A,000000000,000000000,MA100,240169938,72221305.000000000000000,1281,318,675,0.002708631400000,0,3281,1626,607,1748,36327,637,130600,79,4,2.0000000,37,10,19210,-75.3927002,39.9183006,DELAWARE
294,532,SEVEN STONES,22 S PLUM ST,MEDIA,PA,Pennsylvania,19063,581228,72221305,160, ,4,A, , ,A,000000000,000000000,MS100,369465919,72221305.000000000000000,1389,235,596,0.002708631400000,0,3281,1626,607,1748,36327,637,130600,79,4,2.0000000,37,10,19193,-75.3901978,39.9184990,DELAWARE
295,533,DUNKIN' DONUTS,1 S CHESTER RD # 5,SWARTHMORE,PA,Pennsylvania,19081,546105,72221310,504,2,9,B,D, ,B,307608455,902093095,TS100,604629667,72221310.000000000000000,1000,1190,1892,0.001666911300000,0,6170,1986,1392,2064,82653,691,240200,86,4,3.1099999,77,2,22084,-75.3505020,39.9024010,DELAWARE
296,534,HOBBS COFFEE LLC,1 PARK AVE # A,SWARTHMORE,PA,Pennsylvania,19081,581228,72221305,400, ,10,C, , ,B,000000000,000000000,MS100,401471785,72221305.000000000000000,1000,1184,1871,0.001666911300000,0,6170,1986,1392,2064,82653,691,240200,86,4,3.1099999,77,2,22090,-75.3503036,39.9024010,DELAWARE
297,535,DUNKIN' DONUTS,2705 EDGMONT AVE,CHESTER,PA,Pennsylvania,19015,546105,72221310,392,2,7,B,D, ,B,307608455,902093095,MA93*,557844693,72221310.000000000000000,1414,4179,1279,0.004241883000000,0,2267,877,626,918,43533,589,89800,94,7,2.5799999,14,6,26774,-75.3761978,39.8666992,DELAWARE
298,581,BOSTON BEAN CAFE,12 S LAKE ST,NORTH EAST,PA,Pennsylvania,16428,581228,72221305,320, ,8,B, , ,B,000000000,000000000,MS98,256939414,72221305.000000000000000,2102,22526,11532,0.001272183600000,0,4601,1725,1221,1795,36431,404,93300,97,7,2.6700001,22,14,31264,-79.8346024,42.2156982,ERIE
299,582,JOHNNY'S COZY CAFE,1351 TROUPE RD,HARBORCREEK,PA,Pennsylvania,16421,581228,72221305,400, ,10,C, , ,B,000000000,000000000,MS100,402786178,72221305.000000000000000,4061,10895,3289,0.000119815800000,0,2778,1046,734,1104,41979,378,104400,98,4,2.6600001,27,9,15064,-79.9649963,42.1664009,ERIE
300,583,TIM HORTONS,2565 W 12TH ST,ERIE,PA,Pennsylvania,16505,546105,72221310,1176,2,21,D,T, ,B,000000000,482651494,MA100,626881213,72221310.000000000000000,0,2416,419,0.000122122000000,0,1534,697,452,850,36106,415,89100,97,3,2.2200000,32,4,7081,-80.1381989,42.1025009,ERIE
301,584,JACK FROST DOUGHNUT SHOP,2119 BUFFALO RD,ERIE,PA,Pennsylvania,16510,546105,72221310,112, ,2,A, , ,A,000000000,000000000,MA100,119095545,72221310.000000000000000,640,4397,1929,0.001178839300000,0,4267,1581,1174,1675,33460,426,59200,71,5,2.7000000,10,18,6433,-80.0290985,42.1341019,ERIE
302,585,HOOKAH CAFE,129 W 14TH ST,ERIE,PA,Pennsylvania,16501,581228,72221305,400, ,10,C, , ,B,000000000,000000000,MS100,604608919,72221305.000000000000000,141,1486,610,0.001512338100000,0,2501,1099,111,1245,9480,235,137500,84,1,2.2600000,6,41,2087,-80.0822983,42.1208992,ERIE
303,586,STARBUCKS,502 STATE ST,ERIE,PA,Pennsylvania,16501,581228,72221305,640,2,16,C,4, ,B,000000000,303651459,MA100,212128540,72221305.000000000000000,721,2013,841,0.002760107500000,0,2501,1099,111,1245,9480,235,137500,84,1,2.2600000,6,41,3552,-80.0858994,42.1302986,ERIE
304,587,TIM HORTONS,209 E 12TH ST,ERIE,PA,Pennsylvania,16503,546105,72221310,1176,2,21,D,T, ,B,000000000,482651494,MA100,393627971,72221310.000000000000000,0,1383,617,0.001855971400000,0,1896,675,489,780,17944,280,29800,30,10,2.7100000,1,45,2544,-80.0772018,42.1250000,ERIE
305,588,TIM HORTONS,1702 E 38TH ST,ERIE,PA,Pennsylvania,16510,546105,72221310,1176,2,21,D,T, ,B,000000000,482651494,MA100,400847946,72221310.000000000000000,2360,4023,1325,0.001726381100000,0,6854,2861,1971,2948,37796,369,71900,90,5,2.4000001,19,8,5154,-80.0298996,42.1157990,ERIE
306,589,MIGHTY FINE DONUTS,2612 PARADE ST,ERIE,PA,Pennsylvania,16504,546105,72221310,1008, ,18,C, , ,B,000000000,000000000,MS100,119058782,72221310.000000000000000,943,2504,1553,0.003517344200000,0,2561,945,636,1031,36632,478,52400,83,8,2.7100000,17,12,1516,-80.0649033,42.1147995,ERIE
307,590,H & K DO NUT SHOP,3712 W LAKE RD,ERIE,PA,Pennsylvania,16505,546105,72221310,224, ,4,A, , ,A,000000000,000000000,MA100,119067635,72221310.000000000000000,539,2962,3234,0.000913721400000,0,4773,2245,1173,2463,34595,466,74000,98,5,2.1199999,20,9,10542,-80.1687012,42.0975990,ERIE
308,591,PRESQUE ISLE GALLERY CFFHS,35 PENINSULA DR,ERIE,PA,Pennsylvania,16505,581228,72221305,200, ,5,B, , ,A,000000000,000000000,MS100,669194961,72221305.000000000000000,1414,3040,2435,0.000122122000000,0,4773,2245,1173,2463,34595,466,74000,98,5,2.1199999,20,9,9002,-80.1557999,42.1119003,ERIE
309,592,COFFEE & BYTES,1835 W 26TH ST,ERIE,PA,Pennsylvania,16508,581228,72221305,80, ,2,A, , ,A,000000000,000000000,MS100,403358984,72221305.000000000000000,566,2920,1154,0.001913942500000,0,2832,1098,839,1147,31452,394,59900,88,6,2.5799999,10,14,4689,-80.1143036,42.0968018,ERIE
310,593,TIM HORTONS,4231 PEACH ST,ERIE,PA,Pennsylvania,16509,546105,72221310,1176,2,21,D,T, ,B,000000000,482651494,MS100,397529348,72221310.000000000000000,0,2420,1071,0.001193356600000,0,2916,1191,890,1241,53958,584,105000,98,5,2.4500000,47,2,2799,-80.0848999,42.0909004,ERIE
311,594,TIM HORTONS,2745 W 26TH ST,ERIE,PA,Pennsylvania,16506,546105,72221310,1400,2,25,D,T, ,B,000000000,482651494,MA100,268769817,72221310.000000000000000,1063,2522,396,0.001428435000000,0,4163,1789,1187,1864,38578,630,86200,95,5,2.3299999,20,6,7257,-80.1350021,42.0890999,ERIE
312,595,DONUT CONNECTION,3842 LIBERTY ST,ERIE,PA,Pennsylvania,16509,546105,72221310,616, ,11,C, , ,B,000000000,000000000,MA100,705691889,72221310.000000000000000,0,2566,879,0.001831927700000,0,4218,1792,1184,1878,31932,379,82000,90,7,2.3499999,21,12,2223,-80.0833969,42.0946007,ERIE
313,596,BRICK HOUSE COFFEE,3741 W 26TH ST,ERIE,PA,Pennsylvania,16506,581228,72221305,280, ,7,B, , ,B,000000000,000000000,MA100,269197018,72221305.000000000000000,100,3272,2140,0.000931485200000,0,3700,1509,1144,1570,43250,524,95000,99,5,2.4500000,20,5,10198,-80.1585999,42.0802994,ERIE
314,597,STARBUCKS,5800 PEACH ST # 745,ERIE,PA,Pennsylvania,16565,581228,72221305,600,2,15,C,4, ,B,000000000,303651459,MS92*,255162380,72221305.000000000000000,0,510,1750,0.000676122700000,0,6753,2995,1834,3091,41861,440,122200,96,5,2.2500000,38,6,6243,-80.0927963,42.0685997,ERIE
315,598,STARBUCKS,350 MILLCREEK PLZ,ERIE,PA,Pennsylvania,16565,581228,72221305,640,2,16,C,4, ,B,000000000,303651459,TS100,254990351,72221305.000000000000000,141,340,1822,0.000676122700000,1,3707,1634,984,1704,38061,729,92300,97,5,2.2700000,28,8,6279,-80.0951996,42.0690002,ERIE
316,599,DUNKIN' DONUTS,654 MILLCREEK MALL # 570,ERIE,PA,Pennsylvania,16565,546105,72221310,728, ,13,C,D, ,B,000000000,000000000,TS87*,404732881,72221310.000000000000000,141,335,1843,0.000676122700000,0,3707,1634,984,1704,38061,729,92300,97,5,2.2700000,28,8,6235,-80.0953979,42.0693016,ERIE
317,600,SCOTT CUP O JOE INC,167 MILLCREEK MALL,ERIE,PA,Pennsylvania,16565,581228,72221305,400, ,10,C, , ,B,000000000,000000000,TS100,403371038,72221305.000000000000000,447,754,2169,0.000676122700000,0,3707,1634,984,1704,38061,729,92300,97,5,2.2700000,28,8,6075,-80.0998993,42.0719986,ERIE
318,601,OUT-THE GREY COFFEEHOUSE CAFE,6990 W LAKE RD,FAIRVIEW,PA,Pennsylvania,16415,581228,72221305,400, ,10,C, , ,B,000000000,000000000,MA100,719696189,72221305.000000000000000,1556,11570,7121,0.000239404700000,0,4871,1698,1385,1765,65446,546,162800,96,4,2.8699999,48,3,20769,-80.2473984,42.0550995,ERIE
319,602,KRISPY KREME DOUGHNUTS,7501 PEACH ST,ERIE,PA,Pennsylvania,16509,546105,72221310,2240,2,40,D,K, ,B,000000000,009204504,MA100,247121320,72221310.000000000000000,0,1210,2142,0.000106098500000,0,5529,2113,1689,2212,41688,574,84500,96,5,2.6199999,14,7,8426,-80.0846024,42.0522995,ERIE
320,603,DUNKIN' DONUTS,7165 PEACH ST,ERIE,PA,Pennsylvania,16509,546105,72221310,280,2,5,B,D, ,A,307608455,902093095,MA100,402972620,72221310.000000000000000,0,928,1782,0.000106098500000,0,5529,2113,1689,2212,41688,574,84500,96,5,2.6199999,14,7,8136,-80.0870972,42.0545998,ERIE
321,604,TIM HORTONS,6980 PEACH ST,ERIE,PA,Pennsylvania,16509,546105,72221310,1120,2,20,D,T, ,B,000000000,482651494,MA100,268769940,72221310.000000000000000,0,934,1744,0.000106098500000,0,5529,2113,1689,2212,41688,574,84500,96,5,2.6199999,14,7,8048,-80.0880966,42.0553017,ERIE
322,605,BRAZIL NUT CAFE,34 N CENTER ST,CORRY,PA,Pennsylvania,16407,581228,72221305,400, ,10,C, , ,B,000000000,000000000,MS100,403910765,72221305.000000000000000,23717,50971,1549,0.000424440600000,0,6834,2681,1873,2868,30967,390,53400,99,7,2.5500000,11,16,55882,-79.6406021,41.9211998,ERIE
323,606,ELECTRIC ECTERAS COFFEE HOUS,118 ERIE ST,EDINBORO,PA,Pennsylvania,16412,581228,72221305,40, ,1,A, , ,A,000000000,000000000,MA100,212128573,72221305.000000000000000,3102,18170,8135,0.001091494800000,0,6950,2108,849,2242,26652,519,108000,92,3,3.3000000,54,34,35448,-80.1318970,41.8751984,ERIE
324,607,TIM HORTONS,201 W PLUM ST,EDINBORO,PA,Pennsylvania,16412,546105,72221310,1176,2,21,D,T, ,B,000000000,482651494,MA100,402767770,72221310.000000000000000,3002,18117,8216,0.001091494800000,0,6950,2108,849,2242,26652,519,108000,92,3,3.3000000,54,34,35367,-80.1330032,41.8759003,ERIE
325,997,YUM YUM TASTY DONUTS,79 RESTAURANT ROW,UNIONTOWN,PA,Pennsylvania,15401,546105,72221310,1288, ,23,D, , ,B,000000000,000000000,MS100,831550645,72221310.000000000000000,141,24882,1738,0.000297353200000,0,5210,1995,1497,2063,48191,369,120400,96,5,2.6099999,29,7,62398,-79.7425003,39.9079018,FAYETTE
326,998,STARBUCKS,120 MATTHEW DR,UNIONTOWN,PA,Pennsylvania,15401,581228,72221305,400,2,10,C,4, ,B,000000000,303651459,MA100,637500745,72221305.000000000000000,943,24464,2769,0.000297353200000,0,5210,1995,1497,2063,48191,369,120400,96,5,2.6099999,29,7,62873,-79.7559967,39.9084015,FAYETTE
327,1218,BIG OAK CAFE,410 STOUFFER AVE,CHAMBERSBURG,PA,Pennsylvania,17201,581228,72221305,600, ,15,C, , ,B,000000000,000000000,MA100,614136554,72221305.000000000000000,300,1041,2412,0.000894918800000,0,3963,1720,1097,1853,31714,448,81100,86,7,2.3000000,13,11,92751,-77.6402969,39.9272003,FRANKLIN
328,1219,STARBUCKS,1098 LINCOLN WAY E,CHAMBERSBURG,PA,Pennsylvania,17201,581228,72221305,480,2,12,C,4, ,B,000000000,303651459,MA100,390895985,72221305.000000000000000,0,813,2409,0.000894918800000,0,3963,1720,1097,1853,31714,448,81100,86,7,2.3000000,13,11,92408,-77.6387024,39.9297981,FRANKLIN
329,1220,DUNKIN' DONUTS,1070 LINCOLN WAY E,CHAMBERSBURG,PA,Pennsylvania,17201,546105,72221310,280,2,5,B,D, ,A,307608455,902093095,MA100,402978865,72221310.000000000000000,100,820,2324,0.000894918800000,0,3963,1720,1097,1853,31714,448,81100,86,7,2.3000000,13,11,92503,-77.6399002,39.9300995,FRANKLIN
330,1221,STARBUCKS,913 NORLAND AVE,CHAMBERSBURG,PA,Pennsylvania,17201,581228,72221305,640,2,16,C,4, ,B,000000000,303651459,MS100,637498270,72221305.000000000000000,539,2028,2131,0.000894918800000,0,3963,1720,1097,1853,31714,448,81100,86,7,2.3000000,13,11,90916,-77.6321030,39.9417000,FRANKLIN
331,1222,DUNKIN' DONUTS,1479 LINCOLN WAY E,CHAMBERSBURG,PA,Pennsylvania,17202,546105,72221310,336,2,6,B,D, ,A,307608455,902093095,MA100,576944037,72221310.000000000000000,1300,2593,2650,0.000306652700000,0,6075,2222,1713,2294,46746,617,104400,94,6,2.7300000,22,6,90653,-77.6168976,39.9252014,FRANKLIN
332,1223,DUNKIN' DONUTS,1051 WAYNE AVE # EXXON,CHAMBERSBURG,PA,Pennsylvania,17201,546105,72221310,280,2,5,B,D, ,A,307608455,902093095,MA100,401430385,72221310.000000000000000,283,2804,790,0.000952798100000,0,3727,1809,1015,1894,38096,502,89300,93,5,2.0599999,26,6,94928,-77.6512985,39.9118996,FRANKLIN
333,1224,GREENCASTLE COFFEE ROASTERS,42 E BALTIMORE ST,GREENCASTLE,PA,Pennsylvania,17225,581228,72221305,200, ,5,B, , ,A,000000000,000000000,MA100,404694384,72221305.000000000000000,1100,14017,1291,0.000972600300000,0,3722,1659,1056,1748,40031,458,107100,96,6,2.2400000,16,8,111657,-77.7260971,39.7899017,FRANKLIN
334,1225,HIGHLINE COFFEEHOUSE & CAFE,101 W BALTIMORE ST,GREENCASTLE,PA,Pennsylvania,17225,581228,72221305,200, ,5,B, , ,A,000000000,000000000,MA100,403107094,72221305.000000000000000,1400,14057,1327,0.000972600300000,0,3722,1659,1056,1748,40031,458,107100,96,6,2.2400000,16,8,111899,-77.7295990,39.7907982,FRANKLIN
335,865,VICTORIA SQUARE COMPLEX,95 E HIGH ST,WAYNESBURG,PA,Pennsylvania,15370,581228,72221305,80, ,2,A, , ,A,000000000,000000000,MS100,387409782,72221305.000000000000000,2640,38391,1675,0.002008564100000,0,4184,1620,895,1811,30990,412,62200,97,5,2.5799999,20,13,76706,-80.1855011,39.8964996,GREENE
336,1161,ABIGAIL'S AT THE HUB,501 PENN ST,HUNTINGDON,PA,Pennsylvania,16652,581228,72221305,200, ,5,B, , ,A,000000000,000000000,MA100,714714953,72221305.000000000000000,2110,27002,1457,0.000756028500000,0,6918,2632,1552,2817,31261,388,70700,97,5,2.6300001,23,14,42919,-78.0122986,40.4850006,HUNTINGDON
